;GPS@@@
;Ver=1.1.0
;DIP=2009-00152-00
;Date=2007-Sep-26 15:51:32.414
;Offset_m=
;Latency_s=
;-----------------------------------------------------------------------------------------------------------------------------------------------------------
;Created from source file 'LINEX1.gps'
traces,odo_tick,pos(m),time_elapsed(s),GPS
3,109,0.097536,1.09765625,"$GPGGA,195316.000,3531.51177,N,11947.11613,W,2,10,1.5,168.5,M,-29.8,M,1,138*61"
3,109,0.097536,1.09765625,"$GPGSA,A,3,28,29,17,26,11,19,25,08,27,13,,,2.4,1.5,1.8*3A"
3,109,0.097536,1.09765625,"$GPVTG,0.0,T,,,0.0,N,0.0,K*2D"
10,489,0.438912,2.03125,"$GPGGA,195317.000,3531.51177,N,11947.11613,W,2,10,1.5,168.5,M,-29.8,M,1,138*60"
10,489,0.438912,2.03125,"$GPGSA,A,3,19,08,28,25,11,17,27,29,26,13,,,2.4,1.5,1.8*3A"
10,489,0.438912,2.03125,"$GPVTG,0.0,T,,,0.0,N,0.0,K*2D"
22,1140,1.024128,3.07421875,"$GPGGA,195318.000,3531.51199,N,11947.11614,W,2,10,1.5,168.5,M,-29.8,M,1,138*68"
22,1140,1.024128,3.07421875,"$GPGSA,A,3,28,27,08,25,11,29,19,26,17,13,,,2.4,1.5,1.8*3A"
22,1140,1.024128,3.07421875,"$GPVTG,358.9,T,,,0.8,N,1.5,K*26"
31,1628,1.46304,4.0625,"$GPGGA,195319.000,3531.51229,N,11947.11613,W,2,10,0.9,168.4,M,-29.8,M,2,138*69"
31,1628,1.46304,4.0625,"$GPGSA,A,3,27,28,08,25,11,29,26,19,17,13,,,1.7,0.9,1.4*3B"
31,1628,1.46304,4.0625,"$GPVTG,1.2,T,,,1.1,N,2.0,K*2C"
41,2171,1.95072,4.99609375,"$GPGGA,195320.000,3531.51257,N,11947.11612,W,2,10,0.9,168.4,M,-29.8,M,3,138*6A"
41,2171,1.95072,4.99609375,"$GPGSA,A,3,19,08,27,11,28,17,25,29,26,13,,,1.7,0.9,1.4*3B"
41,2171,1.95072,4.99609375,"$GPVTG,2.7,T,,,1.0,N,1.9,K*21"
53,2822,2.535936,6.04296875,"$GPGGA,195321.000,3531.51281,N,11947.11612,W,2,10,0.9,168.4,M,-29.8,M,4,138*67"
53,2822,2.535936,6.04296875,"$GPGSA,A,3,11,27,28,08,29,25,26,19,17,13,,,1.7,0.9,1.4*3B"
53,2822,2.535936,6.04296875,"$GPVTG,0.4,T,,,0.9,N,1.6,K*27"
62,3310,2.974848,7.03125,"$GPGGA,195322.000,3531.51309,N,11947.11614,W,2,10,0.9,168.3,M,-29.8,M,1,138*61"
62,3310,2.974848,7.03125,"$GPGSA,A,3,27,28,08,25,19,29,11,26,17,13,,,1.7,0.9,1.4*3B"
62,3310,2.974848,7.03125,"$GPVTG,358.4,T,,,1.0,N,1.9,K*2E"
73,3907,3.511296,8.01953125,"$GPGGA,195323.000,3531.51335,N,11947.11617,W,2,10,0.9,168.3,M,-29.8,M,1,138*6C"
73,3907,3.511296,8.01953125,"$GPGSA,A,3,25,29,08,27,11,28,26,19,17,13,,,1.7,0.9,1.4*3B"
73,3907,3.511296,8.01953125,"$GPVTG,355.4,T,,,0.9,N,1.7,K*25"
81,4341,3.90144,9.0078125,"$GPGGA,195324.000,3531.51364,N,11947.11615,W,2,10,0.9,168.3,M,-29.8,M,1,138*6D"
81,4341,3.90144,9.0078125,"$GPGSA,A,3,08,26,27,25,29,28,11,17,19,13,,,1.7,0.9,1.4*3B"
81,4341,3.90144,9.0078125,"$GPVTG,4.6,T,,,1.1,N,1.9,K*27"
91,4884,4.3891203048,10.05078125,"$GPGGA,195325.000,3531.51386,N,11947.11617,W,2,10,0.9,168.3,M,-29.8,M,2,138*61"
91,4884,4.3891203048,10.05078125,"$GPGSA,A,3,27,25,11,29,08,28,26,19,17,13,,,1.7,0.9,1.4*3B"
91,4884,4.3891203048,10.05078125,"$GPVTG,356.8,T,,,0.8,N,1.4,K*28"
98,5264,4.730496,11.09375,"$GPGGA,195326.000,3531.51410,N,11947.11618,W,2,10,0.9,168.3,M,-29.8,M,3,138*64"
98,5264,4.730496,11.09375,"$GPGSA,A,3,27,08,11,25,28,29,19,26,17,13,,,1.7,0.9,1.4*3B"
98,5264,4.730496,11.09375,"$GPVTG,357.5,T,,,0.8,N,1.6,K*26"
100,5372,4.828032,13.015625,"$GPGGA,195327.000,3531.51425,N,11947.11618,W,2,10,0.9,168.3,M,-29.8,M,4,138*64"
100,5372,4.828032,13.015625,"$GPGSA,A,3,28,08,27,11,25,19,29,26,17,13,,,1.7,0.9,1.4*3B"
100,5372,4.828032,13.015625,"$GPVTG,0.4,T,,,0.5,N,1.0,K*2D"
101,5427,4.8768,13.89453125,"$GPGGA,195328.000,3531.51440,N,11947.11618,W,2,10,0.9,168.3,M,-29.8,M,1,138*6D"
101,5427,4.8768,13.89453125,"$GPGSA,A,3,28,27,08,25,11,29,19,26,17,13,,,1.7,0.9,1.4*3B"
101,5427,4.8768,13.89453125,"$GPVTG,0.0,T,,,0.0,N,0.0,K*2D"
102,5481,4.925568,14.1171875,"$GPGGA,195329.000,3531.51440,N,11947.11618,W,2,10,0.9,168.3,M,-29.8,M,1,138*6C"
102,5481,4.925568,14.1171875,"$GPGSA,A,3,28,27,08,25,26,29,11,19,17,13,,,1.7,0.9,1.4*3B"
102,5481,4.925568,14.1171875,"$GPVTG,0.0,T,,,0.0,N,0.0,K*2D"
109,5861,5.2669443048,15.10546875,"$GPGGA,195330.000,3531.51440,N,11947.11617,W,2,10,0.9,168.3,M,-29.8,M,1,138*6B"
109,5861,5.2669443048,15.10546875,"$GPGSA,A,3,28,27,08,25,11,19,29,26,17,13,,,1.7,0.9,1.4*3B"
109,5861,5.2669443048,15.10546875,"$GPVTG,0.0,T,,,0.0,N,0.0,K*2D"
117,6295,5.6570876952,16.09375,"$GPGGA,195331.000,3531.51463,N,11947.11615,W,2,10,0.9,168.3,M,-29.8,M,2,138*6A"
117,6295,5.6570876952,16.09375,"$GPGSA,A,3,28,27,08,11,25,29,26,19,17,13,,,1.7,0.9,1.4*3B"
117,6295,5.6570876952,16.09375,"$GPVTG,5.0,T,,,0.8,N,1.5,K*24"
