;GPS@@@
;Ver=1.1.0
;DIP=2009-00152-00
;Date=2007-Sep-26 15:46:06.156
;Offset_m=
;Latency_s=
;-----------------------------------------------------------------------------------------------------------------------------------------------------------
;Created from source file 'LINEY4.gps'
traces,odo_tick,pos(m),time_elapsed(s),GPS
2,55,0.048768,0.82421875,"$GPGGA,194749.000,3531.51391,N,11947.11664,W,2,10,2.2,168.8,M,-29.8,M,2,138*6E"
2,55,0.048768,0.82421875,"$GPGSA,A,3,29,08,17,26,28,27,19,25,11,13,,,3.1,2.2,2.1*30"
2,55,0.048768,0.82421875,"$GPVTG,0.0,T,,,0.0,N,0.0,K*2D"
5,218,0.195072,1.31640625,"$GPGGA,194750.000,3531.51391,N,11947.11664,W,2,10,2.2,168.8,M,-29.8,M,3,138*67"
5,218,0.195072,1.31640625,"$GPGSA,A,3,08,27,28,17,25,19,29,26,11,13,,,3.1,2.2,2.1*30"
5,218,0.195072,1.31640625,"$GPVTG,0.0,T,,,0.0,N,0.0,K*2D"
13,652,0.585216,2.30859375,"$GPGGA,194751.000,3531.51389,N,11947.11679,W,2,10,2.2,168.7,M,-29.8,M,4,138*6B"
13,652,0.585216,2.30859375,"$GPGSA,A,3,08,27,17,28,19,25,26,29,11,13,,,3.1,2.2,2.1*30"
13,652,0.585216,2.30859375,"$GPVTG,264.4,T,,,0.4,N,0.8,K*25"
24,1249,1.121664,3.3515625,"$GPGGA,194752.000,3531.51392,N,11947.11705,W,2,10,2.2,168.7,M,-29.8,M,1,138*6D"
24,1249,1.121664,3.3515625,"$GPGSA,A,3,08,17,19,27,28,25,29,11,26,13,,,3.1,2.2,2.1*30"
24,1249,1.121664,3.3515625,"$GPVTG,277.2,T,,,0.8,N,1.5,K*21"
33,1737,1.560576,4.28515625,"$GPGGA,194753.000,3531.51390,N,11947.11737,W,2,10,2.2,168.7,M,-29.8,M,1,138*6F"
33,1737,1.560576,4.28515625,"$GPGSA,A,3,08,27,26,25,29,28,11,17,19,13,,,3.1,2.2,2.1*30"
33,1737,1.560576,4.28515625,"$GPVTG,266.4,T,,,0.9,N,1.8,K*2B"
45,2388,2.145792,5.328125,"$GPGGA,194754.000,3531.51390,N,11947.11769,W,2,10,2.2,168.8,M,-29.8,M,1,138*6C"
45,2388,2.145792,5.328125,"$GPGSA,A,3,19,27,08,28,25,17,26,29,11,13,,,3.1,2.2,2.1*30"
45,2388,2.145792,5.328125,"$GPVTG,270.9,T,,,1.0,N,1.8,K*29"
57,3039,2.731008,6.37109375,"$GPGGA,194755.000,3531.51390,N,11947.11804,W,2,10,1.0,168.8,M,-29.8,M,2,138*6B"
57,3039,2.731008,6.37109375,"$GPGSA,A,3,08,17,27,28,19,25,26,29,11,13,,,1.8,1.0,1.5*3D"
57,3039,2.731008,6.37109375,"$GPVTG,271.2,T,,,1.1,N,2.0,K*29"
65,3473,3.121152,7.3046875,"$GPGGA,194756.000,3531.51391,N,11947.11839,W,2,10,1.0,168.8,M,-29.8,M,3,138*66"
65,3473,3.121152,7.3046875,"$GPGSA,A,3,08,11,27,25,26,28,29,17,19,13,,,1.8,1.0,1.5*3D"
65,3473,3.121152,7.3046875,"$GPVTG,272.6,T,,,1.0,N,1.9,K*25"
76,4070,3.6576,8.29296875,"$GPGGA,194757.000,3531.51392,N,11947.11868,W,2,10,1.0,168.8,M,-29.8,M,4,138*67"
76,4070,3.6576,8.29296875,"$GPGSA,A,3,08,17,27,28,19,25,26,11,29,13,,,1.8,1.0,1.5*3D"
76,4070,3.6576,8.29296875,"$GPVTG,273.0,T,,,0.9,N,1.7,K*24"
87,4667,4.194048,9.3359375,"$GPGGA,194758.000,3531.51394,N,11947.11903,W,2,10,1.0,168.8,M,-29.8,M,1,138*67"
87,4667,4.194048,9.3359375,"$GPGSA,A,3,17,08,19,27,28,25,29,11,26,13,,,1.8,1.0,1.5*3D"
87,4667,4.194048,9.3359375,"$GPVTG,275.6,T,,,1.1,N,2.0,K*29"
97,5210,4.6817283048,10.26953125,"$GPGGA,194759.000,3531.51395,N,11947.11938,W,2,10,1.0,168.8,M,-29.8,M,1,138*6F"
97,5210,4.6817283048,10.26953125,"$GPGSA,A,3,19,27,08,28,25,26,29,17,11,13,,,1.8,1.0,1.5*3D"
97,5210,4.6817283048,10.26953125,"$GPVTG,273.7,T,,,1.1,N,2.0,K*2E"
103,5535,4.974336,12.796875,"$GPGGA,194801.000,3531.51389,N,11947.12000,W,2,10,0.9,168.9,M,-29.8,M,2,138*6B"
103,5535,4.974336,12.796875,"$GPGSA,A,3,08,27,17,28,19,25,26,29,11,13,,,1.6,0.9,1.4*3A"
103,5535,4.974336,12.796875,"$GPVTG,0.0,T,,,0.0,N,0.0,K*2D"
107,5752,5.1694083048,13.29296875,"$GPGGA,194802.000,3531.51389,N,11947.12000,W,2,10,0.9,168.9,M,-29.8,M,3,138*69"
107,5752,5.1694083048,13.29296875,"$GPGSA,A,3,27,28,29,25,11,17,19,08,26,13,,,1.6,0.9,1.4*3A"
107,5752,5.1694083048,13.29296875,"$GPVTG,0.0,T,,,0.0,N,0.0,K*2D"
120,6458,5.8033923048,14.3359375,"$GPGGA,194803.000,3531.51388,N,11947.12021,W,2,10,0.9,168.9,M,-29.8,M,4,138*6D"
120,6458,5.8033923048,14.3359375,"$GPGSA,A,3,08,17,27,28,19,25,26,29,11,13,,,1.6,0.9,1.4*3A"
120,6458,5.8033923048,14.3359375,"$GPVTG,267.1,T,,,0.6,N,1.2,K*2A"
