;GPS@@@
;Ver=1.1.0
;DIP=2009-00152-00
;Date=2007-Sep-26 15:52:25.637
;Offset_m=
;Latency_s=
;-----------------------------------------------------------------------------------------------------------------------------------------------------------
;Created from source file 'LINEX2.gps'
traces,odo_tick,pos(m),time_elapsed(s),GPS
1,0,0,0,"$GPGGA,195408.000,3531.51165,N,11947.11695,W,2,10,0.9,168.3,M,-29.8,M,3,138*6D"
1,0,0,0,"$GPGSA,A,3,17,19,11,28,29,25,08,26,27,13,,,1.7,0.9,1.4*3B"
1,0,0,0,"$GPVTG,0.0,T,,,0.0,N,0.0,K*2D"
2,55,0.048768,0.82421875,"$GPGGA,195409.000,3531.51165,N,11947.11695,W,2,10,0.9,168.3,M,-29.8,M,4,138*6B"
2,55,0.048768,0.82421875,"$GPGSA,A,3,17,19,29,08,25,11,26,28,27,13,,,1.7,0.9,1.4*3B"
2,55,0.048768,0.82421875,"$GPVTG,0.0,T,,,0.0,N,0.0,K*2D"
8,380,0.341376,1.8671875,"$GPGGA,195410.000,3531.51165,N,11947.11695,W,2,10,0.9,168.3,M,-29.8,M,1,138*66"
8,380,0.341376,1.8671875,"$GPGSA,A,3,28,11,27,08,25,29,26,19,17,13,,,1.7,0.9,1.4*3B"
8,380,0.341376,1.8671875,"$GPVTG,0.0,T,,,0.0,N,0.0,K*2D"
18,923,0.829056,2.85546875,"$GPGGA,195411.000,3531.51181,N,11947.11695,W,2,10,0.9,168.3,M,-29.8,M,1,138*6D"
18,923,0.829056,2.85546875,"$GPGSA,A,3,28,08,27,11,25,29,26,19,17,13,,,1.7,0.9,1.4*3B"
18,923,0.829056,2.85546875,"$GPVTG,1.3,T,,,0.6,N,1.1,K*29"
29,1520,1.365504,3.8984375,"$GPGGA,195412.000,3531.51210,N,11947.11698,W,2,10,0.9,168.3,M,-29.8,M,1,138*68"
29,1520,1.365504,3.8984375,"$GPGSA,A,3,08,28,27,19,25,11,29,26,17,13,,,1.7,0.9,1.4*3B"
29,1520,1.365504,3.8984375,"$GPVTG,354.9,T,,,1.0,N,1.9,K*2F"
41,2171,1.95072,4.83203125,"$GPGGA,195413.000,3531.51242,N,11947.11697,W,2,10,0.9,168.3,M,-29.8,M,2,138*62"
41,2171,1.95072,4.83203125,"$GPGSA,A,3,08,27,26,25,28,29,11,19,17,13,,,1.7,0.9,1.4*3B"
41,2171,1.95072,4.83203125,"$GPVTG,1.8,T,,,1.1,N,2.1,K*27"
55,2931,2.633472,5.875,"$GPGGA,195414.000,3531.51272,N,11947.11693,W,2,10,0.9,168.2,M,-29.8,M,3,138*62"
55,2931,2.633472,5.875,"$GPGSA,A,3,08,19,28,27,17,25,11,29,26,13,,,1.7,0.9,1.4*3B"
55,2931,2.633472,5.875,"$GPVTG,5.9,T,,,1.1,N,2.0,K*23"
65,3473,3.121152,6.8125,"$GPGGA,195415.000,3531.51306,N,11947.11694,W,2,10,0.9,168.2,M,-29.8,M,4,138*61"
65,3473,3.121152,6.8125,"$GPGSA,A,3,08,19,28,27,17,25,11,29,26,13,,,1.7,0.9,1.4*3B"
65,3473,3.121152,6.8125,"$GPVTG,358.9,T,,,1.2,N,2.3,K*28"
76,4070,3.6576,7.85546875,"$GPGGA,195416.000,3531.51334,N,11947.11697,W,2,10,0.9,168.3,M,-29.8,M,1,138*64"
76,4070,3.6576,7.85546875,"$GPGSA,A,3,27,08,28,25,11,29,26,19,17,13,,,1.7,0.9,1.4*3B"
76,4070,3.6576,7.85546875,"$GPVTG,355.9,T,,,1.0,N,1.8,K*2F"
83,4450,3.998976,8.7890625,"$GPGGA,195417.000,3531.51361,N,11947.11697,W,2,10,0.9,168.3,M,-29.8,M,1,138*65"
83,4450,3.998976,8.7890625,"$GPGSA,A,3,27,19,08,17,28,11,25,29,26,13,,,1.7,0.9,1.4*3B"
83,4450,3.998976,8.7890625,"$GPVTG,358.6,T,,,1.0,N,1.8,K*2D"
94,5047,4.535424,9.83203125,"$GPGGA,195418.000,3531.51383,N,11947.11697,W,2,10,0.9,168.3,M,-29.8,M,1,138*66"
94,5047,4.535424,9.83203125,"$GPGSA,A,3,08,28,11,27,19,25,29,17,26,13,,,1.7,0.9,1.4*3B"
94,5047,4.535424,9.83203125,"$GPVTG,1.8,T,,,0.8,N,1.5,K*28"
99,5318,4.779264,11.0390625,"$GPGGA,195419.000,3531.51408,N,11947.11695,W,2,10,0.9,168.3,M,-29.8,M,2,138*62"
99,5318,4.779264,11.0390625,"$GPGSA,A,3,27,25,29,08,11,28,26,19,17,13,,,1.7,0.9,1.4*3B"
99,5318,4.779264,11.0390625,"$GPVTG,4.1,T,,,0.9,N,1.7,K*27"
101,5427,4.8768,12.578125,"$GPGGA,195420.000,3531.51433,N,11947.11692,W,2,10,0.9,168.3,M,-29.8,M,3,138*66"
101,5427,4.8768,12.578125,"$GPGSA,A,3,28,27,11,08,25,29,26,19,17,13,,,1.7,0.9,1.4*3B"
101,5427,4.8768,12.578125,"$GPVTG,0.0,T,,,0.0,N,0.0,K*2D"
103,5535,4.974336,12.8515625,"$GPGGA,195421.000,3531.51433,N,11947.11692,W,2,10,0.9,168.3,M,-29.8,M,4,138*60"
103,5535,4.974336,12.8515625,"$GPGSA,A,3,28,27,08,11,25,29,26,19,17,13,,,1.7,0.9,1.4*3B"
103,5535,4.974336,12.8515625,"$GPVTG,0.0,T,,,0.0,N,0.0,K*2D"
111,5969,5.36448,13.78515625,"$GPGGA,195422.000,3531.51433,N,11947.11692,W,2,10,0.9,168.3,M,-29.8,M,1,138*66"
111,5969,5.36448,13.78515625,"$GPGSA,A,3,28,27,08,11,25,29,26,19,17,13,,,1.7,0.9,1.4*3B"
111,5969,5.36448,13.78515625,"$GPVTG,0.0,T,,,0.0,N,0.0,K*2D"
119,6403,5.7546243048,14.828125,"$GPGGA,195423.000,3531.51455,N,11947.11692,W,2,10,0.9,168.3,M,-29.8,M,1,138*67"
119,6403,5.7546243048,14.828125,"$GPGSA,A,3,28,27,08,11,25,29,26,19,17,13,,,1.7,0.9,1.4*3B"
119,6403,5.7546243048,14.828125,"$GPVTG,0.3,T,,,0.8,N,1.5,K*22"
