;GPS@@@
;Ver=1.1.0
;DIP=2009-00152-00
;Date=2007-Sep-26 15:54:01.098
;Offset_m=
;Latency_s=
;-----------------------------------------------------------------------------------------------------------------------------------------------------------
;Created from source file 'LINEX4.gps'
traces,odo_tick,pos(m),time_elapsed(s),GPS
1,0,0,0,"$GPGGA,195543.000,3531.51167,N,11947.11751,W,2,10,1.0,169.1,M,-29.8,M,2,138*62"
1,0,0,0,"$GPGSA,A,3,08,19,17,27,28,11,25,29,26,13,,,1.7,1.0,1.4*33"
1,0,0,0,"$GPVTG,0.0,T,,,0.0,N,0.0,K*2D"
2,55,0.048768,0.93359375,"$GPGGA,195544.000,3531.51168,N,11947.11752,W,2,10,1.0,169.1,M,-29.8,M,3,138*68"
2,55,0.048768,0.93359375,"$GPGSA,A,3,11,08,29,26,25,28,27,17,19,13,,,1.7,1.0,1.4*33"
2,55,0.048768,0.93359375,"$GPVTG,0.0,T,,,0.0,N,0.0,K*2D"
5,218,0.195072,1.31640625,"$GPGGA,195545.000,3531.51168,N,11947.11752,W,2,10,1.0,169.1,M,-29.8,M,4,138*6E"
5,218,0.195072,1.31640625,"$GPGSA,A,3,28,25,11,08,27,29,17,26,19,13,,,1.7,1.0,1.4*33"
5,218,0.195072,1.31640625,"$GPVTG,0.0,T,,,0.0,N,0.0,K*2D"
12,597,0.536448,2.41796875,"$GPGGA,195546.000,3531.51182,N,11947.11754,W,2,10,1.0,169.1,M,-29.8,M,1,138*6A"
12,597,0.536448,2.41796875,"$GPGSA,A,3,28,08,27,11,25,29,19,26,17,13,,,1.7,1.0,1.4*33"
12,597,0.536448,2.41796875,"$GPVTG,357.2,T,,,0.5,N,0.9,K*22"
21,1086,0.97536,3.3515625,"$GPGGA,195547.000,3531.51203,N,11947.11754,W,2,10,1.0,169.0,M,-29.8,M,1,138*60"
21,1086,0.97536,3.3515625,"$GPGSA,A,3,28,27,08,25,11,29,26,19,17,13,,,1.7,1.0,1.4*33"
21,1086,0.97536,3.3515625,"$GPVTG,1.2,T,,,0.7,N,1.3,K*2B"
33,1737,1.560576,4.39453125,"$GPGGA,195548.000,3531.51232,N,11947.11761,W,2,10,1.0,169.0,M,-29.8,M,1,138*6B"
33,1737,1.560576,4.39453125,"$GPGSA,A,3,08,27,28,19,25,29,11,26,17,13,,,1.7,1.0,1.4*33"
33,1737,1.560576,4.39453125,"$GPVTG,356.2,T,,,1.0,N,1.8,K*27"
42,2225,1.999488,5.3828125,"$GPGGA,195549.000,3531.51262,N,11947.11760,W,2,10,0.9,169.0,M,-29.8,M,2,138*65"
42,2225,1.999488,5.3828125,"$GPGSA,A,3,08,27,25,26,28,29,17,19,11,13,,,1.7,0.9,1.4*3B"
42,2225,1.999488,5.3828125,"$GPVTG,6.1,T,,,1.1,N,2.0,K*28"
52,2768,2.487168,6.37109375,"$GPGGA,195550.000,3531.51286,N,11947.11762,W,2,10,0.9,169.1,M,-29.8,M,3,138*65"
52,2768,2.487168,6.37109375,"$GPGSA,A,3,26,27,25,08,29,28,11,19,17,13,,,1.7,0.9,1.4*3B"
52,2768,2.487168,6.37109375,"$GPVTG,355.2,T,,,0.8,N,1.5,K*20"
61,3256,2.92608,7.359375,"$GPGGA,195551.000,3531.51312,N,11947.11757,W,2,10,0.9,169.2,M,-29.8,M,4,138*6A"
61,3256,2.92608,7.359375,"$GPGSA,A,3,08,27,28,25,26,11,29,17,19,13,,,1.7,0.9,1.4*3B"
61,3256,2.92608,7.359375,"$GPVTG,5.2,T,,,0.9,N,1.6,K*24"
71,3799,3.41376,8.40234375,"$GPGGA,195552.000,3531.51339,N,11947.11754,W,2,10,0.9,169.2,M,-29.8,M,1,138*66"
71,3799,3.41376,8.40234375,"$GPGSA,A,3,19,08,27,17,28,25,26,29,11,13,,,1.7,0.9,1.4*3B"
71,3799,3.41376,8.40234375,"$GPVTG,358.9,T,,,1.0,N,1.8,K*22"
80,4287,3.852672,9.390625,"$GPGGA,195553.000,3531.51363,N,11947.11753,W,2,10,0.9,169.3,M,-29.8,M,1,138*6E"
80,4287,3.852672,9.390625,"$GPGSA,A,3,25,11,27,28,08,26,29,19,17,13,,,1.7,0.9,1.4*3B"
80,4287,3.852672,9.390625,"$GPVTG,357.6,T,,,0.9,N,1.7,K*25"
88,4721,4.242816,10.32421875,"$GPGGA,195554.000,3531.51384,N,11947.11751,W,2,10,0.9,169.3,M,-29.8,M,1,138*62"
88,4721,4.242816,10.32421875,"$GPGSA,A,3,19,08,27,28,17,11,29,25,26,13,,,1.7,0.9,1.4*3B"
88,4721,4.242816,10.32421875,"$GPVTG,0.4,T,,,0.8,N,1.6,K*26"
94,5047,4.535424,11.42578125,"$GPGGA,195555.000,3531.51404,N,11947.11753,W,2,10,0.9,169.3,M,-29.8,M,2,138*6D"
94,5047,4.535424,11.42578125,"$GPGSA,A,3,27,29,11,26,25,08,28,19,17,13,,,1.7,0.9,1.4*3B"
94,5047,4.535424,11.42578125,"$GPVTG,357.6,T,,,0.8,N,1.4,K*27"
99,5318,4.779264,12.359375,"$GPGGA,195556.000,3531.51418,N,11947.11753,W,2,10,0.9,169.3,M,-29.8,M,3,138*62"
99,5318,4.779264,12.359375,"$GPGSA,A,3,08,28,27,19,25,11,29,26,17,13,,,1.7,0.9,1.4*3B"
99,5318,4.779264,12.359375,"$GPVTG,3.1,T,,,0.5,N,0.9,K*23"
101,5427,4.8768,14.171875,"$GPGGA,195557.000,3531.51430,N,11947.11755,W,2,10,0.9,169.2,M,-29.8,M,4,138*69"
101,5427,4.8768,14.171875,"$GPGSA,A,3,26,25,27,08,29,28,11,19,17,13,,,1.7,0.9,1.4*3B"
101,5427,4.8768,14.171875,"$GPVTG,356.5,T,,,0.4,N,0.8,K*24"
103,5535,4.974336,14.4453125,"$GPGGA,195558.000,3531.51441,N,11947.11759,W,2,10,0.9,169.2,M,-29.8,M,1,138*69"
103,5535,4.974336,14.4453125,"$GPGSA,A,3,28,27,08,11,25,29,19,26,17,13,,,1.7,0.9,1.4*3B"
103,5535,4.974336,14.4453125,"$GPVTG,0.0,T,,,0.0,N,0.0,K*2D"
111,5969,5.36448,15.37890625,"$GPGGA,195559.000,3531.51453,N,11947.11762,W,2,10,0.9,169.2,M,-29.8,M,1,138*63"
111,5969,5.36448,15.37890625,"$GPGSA,A,3,28,08,27,19,25,11,29,26,17,13,,,1.7,0.9,1.4*3B"
111,5969,5.36448,15.37890625,"$GPVTG,349.7,T,,,0.4,N,0.8,K*28"
