;GPS@@@
;Ver=1.1.0
;DIP=2009-00152-00
;Date=2007-Sep-26 15:43:58.344
;Offset_m=
;Latency_s=
;-----------------------------------------------------------------------------------------------------------------------------------------------------------
;Created from source file 'LINEY2.gps'
traces,odo_tick,pos(m),time_elapsed(s),GPS
2,55,0.048768,0.93359375,"$GPGGA,194541.000,3531.51293,N,11947.11611,W,2,10,1.0,168.8,M,-29.8,M,1,138*67"
2,55,0.048768,0.93359375,"$GPGSA,A,3,29,19,13,28,17,25,26,11,08,27,,,1.7,1.0,1.4*33"
2,55,0.048768,0.93359375,"$GPVTG,0.0,T,,,0.0,N,0.0,K*2D"
3,109,0.097536,1.09765625,"$GPGGA,194542.000,3531.51293,N,11947.11611,W,2,10,1.0,168.8,M,-29.8,M,1,138*64"
3,109,0.097536,1.09765625,"$GPGSA,A,3,17,08,11,19,13,26,28,25,27,29,,,1.7,1.0,1.4*33"
3,109,0.097536,1.09765625,"$GPVTG,0.0,T,,,0.0,N,0.0,K*2D"
10,489,0.438912,2.08984375,"$GPGGA,194543.000,3531.51293,N,11947.11611,W,2,10,0.9,168.8,M,-29.8,M,2,138*6E"
10,489,0.438912,2.08984375,"$GPGSA,A,3,08,13,17,27,19,28,25,11,26,29,,,1.6,0.9,1.3*3D"
10,489,0.438912,2.08984375,"$GPVTG,0.0,T,,,0.0,N,0.0,K*2D"
19,977,0.877824,3.1328125,"$GPGGA,194544.000,3531.51292,N,11947.11634,W,2,10,0.9,168.8,M,-29.8,M,3,138*6E"
19,977,0.877824,3.1328125,"$GPGSA,A,3,08,13,17,27,19,28,25,11,29,26,,,1.6,0.9,1.3*3D"
19,977,0.877824,3.1328125,"$GPVTG,267.7,T,,,0.7,N,1.3,K*2C"
26,1357,1.2192,4.12109375,"$GPGGA,194545.000,3531.51292,N,11947.11664,W,2,10,0.9,168.8,M,-29.8,M,4,138*6D"
26,1357,1.2192,4.12109375,"$GPGSA,A,3,08,17,13,27,19,28,25,11,26,29,,,1.6,0.9,1.3*3D"
26,1357,1.2192,4.12109375,"$GPVTG,270.2,T,,,0.9,N,1.7,K*25"
36,1900,1.70688,5.21875,"$GPGGA,194546.000,3531.51292,N,11947.11689,W,2,10,0.9,168.8,M,-29.8,M,1,138*68"
36,1900,1.70688,5.21875,"$GPGSA,A,3,08,13,27,17,28,19,25,26,11,29,,,1.6,0.9,1.3*3D"
36,1900,1.70688,5.21875,"$GPVTG,271.6,T,,,0.7,N,1.3,K*2A"
44,2334,2.097024,6.09765625,"$GPGGA,194547.000,3531.51292,N,11947.11718,W,2,10,0.9,168.8,M,-29.8,M,1,138*60"
44,2334,2.097024,6.09765625,"$GPGSA,A,3,08,13,17,27,19,28,25,26,29,11,,,1.6,0.9,1.3*3D"
44,2334,2.097024,6.09765625,"$GPVTG,271.5,T,,,0.8,N,1.6,K*23"
54,2876,2.584704,7.140625,"$GPGGA,194548.000,3531.51292,N,11947.11746,W,2,10,0.9,168.8,M,-29.8,M,1,138*64"
54,2876,2.584704,7.140625,"$GPGSA,A,3,28,08,27,11,25,29,19,17,26,13,,,1.6,0.9,1.3*3D"
54,2876,2.584704,7.140625,"$GPVTG,269.2,T,,,0.8,N,1.6,K*2D"
64,3419,3.072384,8.12890625,"$GPGGA,194549.000,3531.51292,N,11947.11776,W,2,10,0.9,168.8,M,-29.8,M,2,138*65"
64,3419,3.072384,8.12890625,"$GPGSA,A,3,27,17,19,08,28,25,13,29,11,26,,,1.6,0.9,1.3*3D"
64,3419,3.072384,8.12890625,"$GPVTG,271.5,T,,,0.9,N,1.7,K*23"
73,3907,3.511296,9.171875,"$GPGGA,194550.000,3531.51291,N,11947.11809,W,2,10,0.9,168.8,M,-29.8,M,3,138*68"
73,3907,3.511296,9.171875,"$GPGSA,A,3,08,13,28,27,25,17,19,26,29,11,,,1.6,0.9,1.3*3D"
73,3907,3.511296,9.171875,"$GPVTG,270.2,T,,,1.0,N,1.8,K*22"
82,4396,3.950208,10.1640625,"$GPGGA,194551.000,3531.51293,N,11947.11836,W,2,10,0.9,168.8,M,-29.8,M,4,138*60"
82,4396,3.950208,10.1640625,"$GPGSA,A,3,08,13,27,28,17,11,26,29,25,19,,,1.6,0.9,1.3*3D"
82,4396,3.950208,10.1640625,"$GPVTG,274.9,T,,,0.8,N,1.5,K*29"
89,4775,4.291584,11.09765625,"$GPGGA,194552.000,3531.51294,N,11947.11864,W,2,10,0.9,168.8,M,-29.8,M,1,138*66"
89,4775,4.291584,11.09765625,"$GPGSA,A,3,08,28,13,27,19,25,17,26,29,11,,,1.6,0.9,1.3*3D"
89,4775,4.291584,11.09765625,"$GPVTG,273.4,T,,,0.9,N,1.6,K*21"
95,5101,4.584192,12.1953125,"$GPGGA,194553.000,3531.51294,N,11947.11888,W,2,10,0.9,168.8,M,-29.8,M,1,138*65"
95,5101,4.584192,12.1953125,"$GPGSA,A,3,08,13,17,27,19,28,25,11,29,26,,,1.6,0.9,1.3*3D"
95,5101,4.584192,12.1953125,"$GPVTG,273.6,T,,,0.7,N,1.3,K*28"
100,5372,4.828032,13.29296875,"$GPGGA,194554.000,3531.51293,N,11947.11907,W,2,10,0.9,168.8,M,-29.8,M,1,138*63"
100,5372,4.828032,13.29296875,"$GPGSA,A,3,17,08,27,19,13,28,25,11,29,26,,,1.6,0.9,1.3*3D"
100,5372,4.828032,13.29296875,"$GPVTG,270.2,T,,,0.6,N,1.1,K*2C"
101,5427,4.8768,14.88671875,"$GPGGA,194555.000,3531.51294,N,11947.11922,W,2,10,0.9,168.8,M,-29.8,M,2,138*61"
101,5427,4.8768,14.88671875,"$GPGSA,A,3,08,13,27,26,25,29,11,28,17,19,,,1.6,0.9,1.3*3D"
101,5427,4.8768,14.88671875,"$GPVTG,277.0,T,,,0.5,N,0.8,K*22"
103,5535,4.974336,15.16015625,"$GPGGA,194556.000,3531.51295,N,11947.11937,W,2,10,0.9,168.8,M,-29.8,M,3,138*66"
103,5535,4.974336,15.16015625,"$GPGSA,A,3,08,17,13,27,19,28,25,11,29,26,,,1.6,0.9,1.3*3D"
103,5535,4.974336,15.16015625,"$GPVTG,0.0,T,,,0.0,N,0.0,K*2D"
111,5969,5.36448,16.1484375,"$GPGGA,194557.000,3531.51295,N,11947.11937,W,2,10,0.9,168.8,M,-29.8,M,4,138*60"
111,5969,5.36448,16.1484375,"$GPGSA,A,3,08,17,13,27,19,28,25,11,29,26,,,1.6,0.9,1.3*3D"
111,5969,5.36448,16.1484375,"$GPVTG,0.0,T,,,0.0,N,0.0,K*2D"
120,6458,5.8033923048,17.13671875,"$GPGGA,194558.000,3531.51297,N,11947.11957,W,2,10,0.9,168.9,M,-29.8,M,1,138*6F"
120,6458,5.8033923048,17.13671875,"$GPGSA,A,3,08,17,27,13,19,28,25,11,26,29,,,1.6,0.9,1.3*3D"
120,6458,5.8033923048,17.13671875,"$GPVTG,279.6,T,,,0.6,N,1.2,K*22"
125,6729,6.047232,18.1796875,"$GPGGA,194559.000,3531.51299,N,11947.11984,W,2,10,0.9,168.9,M,-29.8,M,1,138*6E"
125,6729,6.047232,18.1796875,"$GPGSA,A,3,08,13,27,28,26,17,25,11,29,19,,,1.6,0.9,1.3*3D"
125,6729,6.047232,18.1796875,"$GPVTG,273.8,T,,,0.8,N,1.4,K*2E"
