;GPS@@@
;Ver=1.1.0
;DIP=2009-00152-00
;Date=2007-Sep-26 15:44:49.48
;Offset_m=
;Latency_s=
;------------------------------------------------------------------------------------------------------------------------------------------------------------
;Created from source file 'LINEY3.gps'
traces,odo_tick,pos(m),time_elapsed(s),GPS
1,0,0,0,"$GPGGA,194632.000,3531.51332,N,11947.11623,W,2,10,1.0,168.7,M,-29.8,M,3,138*66"
1,0,0,0,"$GPGSA,A,3,11,19,28,26,08,25,17,13,27,29,,,1.7,1.0,1.4*33"
1,0,0,0,"$GPVTG,0.0,T,,,0.0,N,0.0,K*2D"
2,55,0.048768,0.93359375,"$GPGGA,194633.000,3531.51332,N,11947.11623,W,2,10,1.0,168.7,M,-29.8,M,4,138*60"
2,55,0.048768,0.93359375,"$GPGSA,A,3,25,19,08,28,29,17,27,26,11,13,,,1.7,1.0,1.4*33"
2,55,0.048768,0.93359375,"$GPVTG,0.0,T,,,0.0,N,0.0,K*2D"
11,543,0.48768,1.9765625,"$GPGGA,194634.000,3531.51332,N,11947.11623,W,2,10,1.0,168.7,M,-29.8,M,1,138*62"
11,543,0.48768,1.9765625,"$GPGSA,A,3,08,13,17,27,19,28,25,11,29,26,,,1.7,1.0,1.4*33"
11,543,0.48768,1.9765625,"$GPVTG,0.0,T,,,0.0,N,0.0,K*2D"
22,1140,1.024128,3.01953125,"$GPGGA,194635.000,3531.51335,N,11947.11649,W,2,10,1.0,168.7,M,-29.8,M,1,138*68"
22,1140,1.024128,3.01953125,"$GPGSA,A,3,08,17,13,27,19,28,25,11,29,26,,,1.7,1.0,1.4*33"
22,1140,1.024128,3.01953125,"$GPVTG,277.4,T,,,0.8,N,1.4,K*26"
34,1791,1.609344,3.953125,"$GPGGA,194636.000,3531.51338,N,11947.11686,W,2,10,1.0,168.7,M,-29.8,M,1,138*65"
34,1791,1.609344,3.953125,"$GPGSA,A,3,08,17,13,27,19,28,25,11,26,29,,,1.7,1.0,1.4*33"
34,1791,1.609344,3.953125,"$GPVTG,276.5,T,,,1.1,N,2.0,K*29"
47,2497,2.243328,5,"$GPGGA,194637.000,3531.51339,N,11947.11727,W,2,10,1.0,168.7,M,-29.8,M,2,138*6C"
47,2497,2.243328,5,"$GPGSA,A,3,08,13,27,17,26,28,25,29,19,11,,,1.7,1.0,1.4*33"
47,2497,2.243328,5,"$GPVTG,273.5,T,,,1.3,N,2.3,K*2D"
56,2985,2.68224,5.93359375,"$GPGGA,194638.000,3531.51336,N,11947.11764,W,2,10,1.0,168.7,M,-29.8,M,3,138*6A"
56,2985,2.68224,5.93359375,"$GPGSA,A,3,19,08,27,28,17,25,13,11,29,26,,,1.7,1.0,1.4*33"
56,2985,2.68224,5.93359375,"$GPVTG,266.0,T,,,1.1,N,2.0,K*2D"
67,3582,3.218688,7.03125,"$GPGGA,194639.000,3531.51337,N,11947.11796,W,2,10,1.0,168.7,M,-29.8,M,4,138*60"
67,3582,3.218688,7.03125,"$GPGSA,A,3,26,29,08,27,11,25,28,13,19,17,,,1.7,1.0,1.4*33"
67,3582,3.218688,7.03125,"$GPVTG,273.5,T,,,1.0,N,1.8,K*26"
75,4016,3.608832,7.96484375,"$GPGGA,194640.000,3531.51337,N,11947.11827,W,2,10,1.0,168.7,M,-29.8,M,1,138*6E"
75,4016,3.608832,7.96484375,"$GPGSA,A,3,08,27,28,19,17,25,11,13,29,26,,,1.7,1.0,1.4*33"
75,4016,3.608832,7.96484375,"$GPVTG,269.8,T,,,0.9,N,1.7,K*27"
84,4504,4.047744,9.0625,"$GPGGA,194641.000,3531.51336,N,11947.11852,W,2,10,1.0,168.7,M,-29.8,M,1,138*6C"
84,4504,4.047744,9.0625,"$GPGSA,A,3,27,08,17,19,25,28,11,26,29,13,,,1.7,1.0,1.4*33"
84,4504,4.047744,9.0625,"$GPVTG,268.2,T,,,0.8,N,1.4,K*2E"
92,4938,4.437888,9.99609375,"$GPGGA,194642.000,3531.51336,N,11947.11878,W,2,10,1.0,168.7,M,-29.8,M,1,138*67"
92,4938,4.437888,9.99609375,"$GPGSA,A,3,19,27,08,25,28,11,17,13,29,26,,,1.7,1.0,1.4*33"
92,4938,4.437888,9.99609375,"$GPVTG,272.0,T,,,0.8,N,1.5,K*26"
99,5318,4.779264,10.9296875,"$GPGGA,194643.000,3531.51335,N,11947.11910,W,2,10,0.9,168.7,M,-29.8,M,2,138*61"
99,5318,4.779264,10.9296875,"$GPGSA,A,3,13,08,27,17,25,28,19,26,29,11,,,1.6,0.9,1.3*3D"
99,5318,4.779264,10.9296875,"$GPVTG,270.1,T,,,1.0,N,1.8,K*21"
101,5427,4.8768,13.015625,"$GPGGA,194645.000,3531.51335,N,11947.11950,W,2,10,0.9,168.8,M,-29.8,M,4,138*6A"
101,5427,4.8768,13.015625,"$GPGSA,A,3,08,13,17,27,19,28,25,11,29,26,,,1.6,0.9,1.3*3D"
101,5427,4.8768,13.015625,"$GPVTG,0.0,T,,,0.0,N,0.0,K*2D"
111,5969,5.36448,14.0625,"$GPGGA,194646.000,3531.51335,N,11947.11950,W,2,10,0.9,168.8,M,-29.8,M,1,138*6C"
111,5969,5.36448,14.0625,"$GPGSA,A,3,08,13,17,27,19,28,25,11,29,26,,,1.6,0.9,1.3*3D"
111,5969,5.36448,14.0625,"$GPVTG,0.0,T,,,0.0,N,0.0,K*2D"
120,6458,5.8033923048,14.99609375,"$GPGGA,194647.000,3531.51334,N,11947.11978,W,2,10,0.9,168.8,M,-29.8,M,1,138*66"
120,6458,5.8033923048,14.99609375,"$GPGSA,A,3,08,13,17,27,19,28,25,26,11,29,,,1.6,0.9,1.3*3D"
120,6458,5.8033923048,14.99609375,"$GPVTG,269.5,T,,,0.8,N,1.5,K*29"
