;GPS@@@
;Ver=1.1.0
;DIP=2009-00152-00
;Date=2007-Sep-26 15:54:52.289
;Offset_m=
;Latency_s=
;-----------------------------------------------------------------------------------------------------------------------------------------------------------
;Created from source file 'LINEX5.gps'
traces,odo_tick,pos(m),time_elapsed(s),GPS
2,55,0.048768,0.98828125,"$GPGGA,195635.000,3531.51172,N,11947.11803,W,2,10,1.3,168.2,M,-29.8,M,1,138*6E"
2,55,0.048768,0.98828125,"$GPGSA,A,3,17,08,11,29,26,19,25,28,27,13,,,2.2,1.3,1.7*35"
2,55,0.048768,0.98828125,"$GPVTG,0.0,T,,,0.0,N,0.0,K*2D"
3,109,0.097536,1.15234375,"$GPGGA,195636.000,3531.51172,N,11947.11803,W,2,10,1.3,168.2,M,-29.8,M,1,138*6D"
3,109,0.097536,1.15234375,"$GPGSA,A,3,29,08,11,27,17,28,19,26,25,13,,,2.2,1.3,1.7*35"
3,109,0.097536,1.15234375,"$GPVTG,0.0,T,,,0.0,N,0.0,K*2D"
12,597,0.536448,2.140625,"$GPGGA,195637.000,3531.51184,N,11947.11805,W,2,10,1.0,168.1,M,-29.8,M,2,138*60"
12,597,0.536448,2.140625,"$GPGSA,A,3,28,08,27,11,25,29,19,26,17,13,,,1.7,1.0,1.4*33"
12,597,0.536448,2.140625,"$GPVTG,357.2,T,,,0.4,N,0.7,K*2D"
23,1194,1.072896,3.12890625,"$GPGGA,195638.000,3531.51211,N,11947.11807,W,2,10,1.0,168.1,M,-29.8,M,3,138*63"
23,1194,1.072896,3.12890625,"$GPGSA,A,3,28,27,08,11,25,29,26,19,17,13,,,1.7,1.0,1.4*33"
23,1194,1.072896,3.12890625,"$GPVTG,359.9,T,,,0.9,N,1.7,K*24"
34,1791,1.609344,4.2265625,"$GPGGA,195639.000,3531.51243,N,11947.11817,W,2,10,1.0,168.0,M,-29.8,M,4,138*62"
34,1791,1.609344,4.2265625,"$GPGSA,A,3,08,19,27,28,17,11,25,29,26,13,,,1.7,1.0,1.4*33"
34,1791,1.609344,4.2265625,"$GPVTG,356.5,T,,,1.0,N,1.8,K*20"
43,2279,2.048256,5.21484375,"$GPGGA,195640.000,3531.51270,N,11947.11826,W,2,10,1.0,168.0,M,-29.8,M,1,138*6B"
43,2279,2.048256,5.21484375,"$GPGSA,A,3,27,08,26,17,28,25,29,11,19,13,,,1.7,1.0,1.4*33"
43,2279,2.048256,5.21484375,"$GPVTG,354.0,T,,,1.0,N,1.8,K*27"
52,2768,2.487168,6.1484375,"$GPGGA,195641.000,3531.51291,N,11947.11826,W,2,10,1.0,168.0,M,-29.8,M,1,138*65"
52,2768,2.487168,6.1484375,"$GPGSA,A,3,08,19,28,27,17,25,11,26,29,13,,,1.7,1.0,1.4*33"
52,2768,2.487168,6.1484375,"$GPVTG,5.4,T,,,0.8,N,1.4,K*21"
60,3202,2.8773123048,7.140625,"$GPGGA,195642.000,3531.51312,N,11947.11831,W,2,10,1.0,168.1,M,-29.8,M,1,138*6B"
60,3202,2.8773123048,7.140625,"$GPGSA,A,3,08,19,17,28,27,25,11,29,26,13,,,1.7,1.0,1.4*33"
60,3202,2.8773123048,7.140625,"$GPVTG,353.1,T,,,0.9,N,1.6,K*27"
69,3690,3.316224,8.18359375,"$GPGGA,195643.000,3531.51333,N,11947.11825,W,2,10,1.0,168.2,M,-29.8,M,2,138*6C"
69,3690,3.316224,8.18359375,"$GPGSA,A,3,17,08,19,28,27,25,11,29,26,13,,,1.7,1.0,1.4*33"
69,3690,3.316224,8.18359375,"$GPVTG,8.0,T,,,0.8,N,1.6,K*2A"
79,4233,3.803904,9.2265625,"$GPGGA,195644.000,3531.51354,N,11947.11828,W,2,10,1.0,168.3,M,-29.8,M,3,138*67"
79,4233,3.803904,9.2265625,"$GPGSA,A,3,08,17,19,27,28,25,11,29,26,13,,,1.7,1.0,1.4*33"
79,4233,3.803904,9.2265625,"$GPVTG,352.5,T,,,0.8,N,1.6,K*23"
88,4721,4.242816,10.16015625,"$GPGGA,195645.000,3531.51377,N,11947.11829,W,2,10,1.0,168.4,M,-29.8,M,4,138*66"
88,4721,4.242816,10.16015625,"$GPGSA,A,3,08,28,25,27,26,17,19,11,29,13,,,1.7,1.0,1.4*33"
88,4721,4.242816,10.16015625,"$GPVTG,359.3,T,,,0.9,N,1.6,K*2F"
97,5210,4.6817283048,11.2578125,"$GPGGA,195646.000,3531.51402,N,11947.11829,W,2,10,1.0,168.4,M,-29.8,M,1,138*65"
97,5210,4.6817283048,11.2578125,"$GPGSA,A,3,27,25,11,26,29,08,28,19,17,13,,,1.7,1.0,1.4*33"
97,5210,4.6817283048,11.2578125,"$GPVTG,2.6,T,,,1.0,N,1.8,K*21"
101,5427,4.8768,12.6328125,"$GPGGA,195647.000,3531.51420,N,11947.11829,W,2,10,1.0,168.4,M,-29.8,M,1,138*64"
101,5427,4.8768,12.6328125,"$GPGSA,A,3,28,08,27,11,25,29,26,19,17,13,,,1.7,1.0,1.4*33"
101,5427,4.8768,12.6328125,"$GPVTG,4.3,T,,,0.7,N,1.2,K*2E"
102,5481,4.925568,13.94921875,"$GPGGA,195648.000,3531.51436,N,11947.11829,W,2,10,1.0,168.4,M,-29.8,M,1,138*6C"
102,5481,4.925568,13.94921875,"$GPGSA,A,3,28,27,11,08,29,25,26,19,17,13,,,1.7,1.0,1.4*33"
102,5481,4.925568,13.94921875,"$GPVTG,0.0,T,,,0.0,N,0.0,K*2D"
103,5535,4.974336,14.11328125,"$GPGGA,195649.000,3531.51435,N,11947.11829,W,2,10,0.9,168.4,M,-29.8,M,2,138*65"
103,5535,4.974336,14.11328125,"$GPGSA,A,3,25,26,28,27,08,29,19,11,17,13,,,1.7,0.9,1.4*3B"
103,5535,4.974336,14.11328125,"$GPVTG,0.0,T,,,0.0,N,0.0,K*2D"
110,5915,5.3157123048,15.15625,"$GPGGA,195650.000,3531.51447,N,11947.11829,W,2,10,0.9,168.4,M,-29.8,M,3,138*69"
110,5915,5.3157123048,15.15625,"$GPGSA,A,3,28,27,08,11,25,29,26,19,17,13,,,1.7,0.9,1.4*3B"
110,5915,5.3157123048,15.15625,"$GPVTG,0.8,T,,,0.4,N,0.8,K*29"
