;GPS@@@
;Ver=1.1.0
;DIP=2009-00152-00
;Date=2007-Sep-26 15:56:43.676
;Offset_m=
;Latency_s=
;-----------------------------------------------------------------------------------------------------------------------------------------------------------
;Created from source file 'LINEX7.gps'
traces,odo_tick,pos(m),time_elapsed(s),GPS
1,1,0,0,"$GPGGA,195826.000,3531.51154,N,11947.11877,W,2,09,1.0,168.4,M,-29.8,M,3,138*6A"
1,1,0,0,"$GPGSA,A,3,27,11,26,08,25,29,28,19,17,,,,1.8,1.0,1.5*3F"
1,1,0,0,"$GPVTG,0.0,T,,,0.0,N,0.0,K*2D"
2,55,0.048768,1.2109375,"$GPGGA,195827.000,3531.51154,N,11947.11876,W,2,09,1.0,168.4,M,-29.8,M,4,138*6D"
2,55,0.048768,1.2109375,"$GPGSA,A,3,27,28,08,25,11,19,29,26,17,,,,1.8,1.0,1.5*3F"
2,55,0.048768,1.2109375,"$GPVTG,0.0,T,,,0.0,N,0.0,K*2D"
5,218,0.195072,1.9765625,"$GPGGA,195828.000,3531.51155,N,11947.11875,W,2,09,1.0,168.3,M,-29.8,M,1,138*62"
5,218,0.195072,1.9765625,"$GPGSA,A,3,08,28,27,29,11,25,26,19,17,,,,1.8,1.0,1.5*3F"
5,218,0.195072,1.9765625,"$GPVTG,0.0,T,,,0.0,N,0.0,K*2D"
11,543,0.48768,2.80078125,"$GPGGA,195829.000,3531.51166,N,11947.11876,W,2,09,1.0,168.3,M,-29.8,M,1,138*60"
11,543,0.48768,2.80078125,"$GPGSA,A,3,28,08,27,11,25,29,19,26,17,,,,1.8,1.0,1.5*3F"
11,543,0.48768,2.80078125,"$GPVTG,355.5,T,,,0.4,N,0.7,K*28"
23,1194,1.072896,3.7890625,"$GPGGA,195830.000,3531.51191,N,11947.11876,W,2,09,1.0,168.1,M,-29.8,M,1,138*62"
23,1194,1.072896,3.7890625,"$GPGSA,A,3,28,27,08,11,25,29,26,19,17,,,,1.8,1.0,1.5*3F"
23,1194,1.072896,3.7890625,"$GPVTG,0.8,T,,,0.8,N,1.4,K*28"
32,1683,1.511808,4.77734375,"$GPGGA,195831.000,3531.51226,N,11947.11870,W,2,09,1.0,167.9,M,-29.8,M,2,138*6E"
32,1683,1.511808,4.77734375,"$GPGSA,A,3,28,08,27,11,25,29,26,19,17,,,,1.8,1.0,1.5*3F"
32,1683,1.511808,4.77734375,"$GPVTG,359.8,T,,,1.1,N,1.9,K*22"
41,2171,1.95072,5.82421875,"$GPGGA,195832.000,3531.51251,N,11947.11876,W,2,09,1.0,167.7,M,-29.8,M,3,138*64"
41,2171,1.95072,5.82421875,"$GPGSA,A,3,08,27,25,29,11,26,28,19,17,,,,1.8,1.0,1.5*3F"
41,2171,1.95072,5.82421875,"$GPVTG,356.5,T,,,0.9,N,1.7,K*27"
50,2659,2.389632,6.8671875,"$GPGGA,195833.000,3531.51268,N,11947.11874,W,2,09,1.0,167.8,M,-29.8,M,4,138*65"
50,2659,2.389632,6.8671875,"$GPGSA,A,3,28,27,08,11,29,25,26,19,17,,,,1.8,1.0,1.5*3F"
50,2659,2.389632,6.8671875,"$GPVTG,355.4,T,,,0.7,N,1.3,K*2F"
57,3039,2.731008,8.12890625,"$GPGGA,195834.000,3531.51288,N,11947.11870,W,2,09,1.0,168.0,M,-29.8,M,1,138*6A"
57,3039,2.731008,8.12890625,"$GPGSA,A,3,08,26,27,25,28,29,11,19,17,,,,1.8,1.0,1.5*3F"
57,3039,2.731008,8.12890625,"$GPVTG,2.5,T,,,0.8,N,1.4,K*27"
60,3202,2.8773123048,8.953125,"$GPGGA,195835.000,3531.51309,N,11947.11870,W,2,10,0.9,168.2,M,-29.8,M,1,138*61"
60,3202,2.8773123048,8.953125,"$GPGSA,A,3,08,27,25,26,28,11,29,17,19,10,,,1.7,0.9,1.4*38"
60,3202,2.8773123048,8.953125,"$GPVTG,358.1,T,,,0.7,N,1.4,K*20"
64,3419,3.072384,9.83203125,"$GPGGA,195836.000,3531.51320,N,11947.11867,W,2,10,0.9,168.2,M,-29.8,M,1,138*6F"
64,3419,3.072384,9.83203125,"$GPGSA,A,3,08,28,27,11,19,25,29,26,17,10,,,1.7,0.9,1.4*38"
64,3419,3.072384,9.83203125,"$GPVTG,10.0,T,,,0.4,N,0.8,K*10"
70,3745,3.364992,10.8203125,"$GPGGA,195837.000,3531.51333,N,11947.11864,W,2,10,0.9,168.3,M,-29.8,M,2,138*6D"
70,3745,3.364992,10.8203125,"$GPGSA,A,3,08,28,27,25,11,26,29,19,17,10,,,1.7,0.9,1.4*38"
70,3745,3.364992,10.8203125,"$GPVTG,0.0,T,,,0.0,N,0.0,K*2D"
78,4179,3.755136,11.75390625,"$GPGGA,195838.000,3531.51348,N,11947.11864,W,2,10,0.9,168.2,M,-29.8,M,3,138*6E"
78,4179,3.755136,11.75390625,"$GPGSA,A,3,28,08,27,11,25,29,26,19,17,10,,,1.7,0.9,1.4*38"
78,4179,3.755136,11.75390625,"$GPVTG,3.1,T,,,0.6,N,1.0,K*28"
87,4667,4.194048,12.8515625,"$GPGGA,195839.000,3531.51367,N,11947.11864,W,2,10,0.9,168.2,M,-29.8,M,4,138*65"
87,4667,4.194048,12.8515625,"$GPGSA,A,3,27,08,28,29,11,25,19,26,17,10,,,1.7,0.9,1.4*38"
87,4667,4.194048,12.8515625,"$GPVTG,1.8,T,,,0.7,N,1.3,K*21"
94,5047,4.535424,14.0078125,"$GPGGA,195840.000,3531.51391,N,11947.11868,W,2,10,0.9,168.2,M,-29.8,M,1,138*6B"
94,5047,4.535424,14.0078125,"$GPGSA,A,3,08,19,27,28,25,17,11,26,29,10,,,1.7,0.9,1.4*38"
94,5047,4.535424,14.0078125,"$GPVTG,356.5,T,,,0.8,N,1.5,K*24"
96,5155,4.63296,14.77734375,"$GPGGA,195841.000,3531.51410,N,11947.11869,W,2,10,0.9,168.2,M,-29.8,M,1,138*65"
96,5155,4.63296,14.77734375,"$GPGSA,A,3,27,08,28,19,25,29,11,26,17,10,,,1.7,0.9,1.4*38"
96,5155,4.63296,14.77734375,"$GPVTG,2.3,T,,,0.6,N,1.2,K*29"
100,5372,4.828032,16.1484375,"$GPGGA,195842.000,3531.51428,N,11947.11869,W,2,10,0.9,168.3,M,-29.8,M,1,138*6C"
100,5372,4.828032,16.1484375,"$GPGSA,A,3,28,27,08,11,25,29,26,19,17,10,,,1.7,0.9,1.4*38"
100,5372,4.828032,16.1484375,"$GPVTG,0.0,T,,,0.0,N,0.0,K*2D"
101,5427,4.8768,17.6875,"$GPGGA,195843.000,3531.51428,N,11947.11870,W,2,10,0.9,168.3,M,-29.8,M,2,138*66"
101,5427,4.8768,17.6875,"$GPGSA,A,3,08,28,27,19,11,25,29,26,17,10,,,1.7,0.9,1.4*38"
101,5427,4.8768,17.6875,"$GPVTG,0.0,T,,,0.0,N,0.0,K*2D"
102,5481,4.925568,17.8515625,"$GPGGA,195844.000,3531.51428,N,11947.11870,W,2,10,0.9,168.3,M,-29.8,M,3,138*60"
102,5481,4.925568,17.8515625,"$GPGSA,A,3,08,28,27,25,11,29,19,26,17,10,,,1.7,0.9,1.4*38"
102,5481,4.925568,17.8515625,"$GPVTG,0.0,T,,,0.0,N,0.0,K*2D"
110,5915,5.3157123048,18.83984375,"$GPGGA,195845.000,3531.51427,N,11947.11871,W,2,10,0.9,168.2,M,-29.8,M,4,138*69"
110,5915,5.3157123048,18.83984375,"$GPGSA,A,3,08,28,27,11,25,29,19,26,17,10,,,1.7,0.9,1.4*38"
110,5915,5.3157123048,18.83984375,"$GPVTG,0.0,T,,,0.0,N,0.0,K*2D"
