;GPS@@@
;Ver=1.1.0
;DIP=2009-00152-00
;Date=2007-Sep-26 15:42:03.109
;Offset_m=
;Latency_s=
;-----------------------------------------------------------------------------------------------------------------------------------------------------------
;Created from source file 'LINEY0.gps'
traces,odo_tick,pos(m),time_elapsed(s),GPS
3,109,0.097536,1.3203125,"$GPGGA,194347.000,3531.51151,N,11947.11574,W,2,10,0.9,168.9,M,-29.8,M,1,138*63"
3,109,0.097536,1.3203125,"$GPGSA,A,3,27,08,19,29,25,13,28,17,26,11,,,1.6,0.9,1.3*3D"
3,109,0.097536,1.3203125,"$GPVTG,0.0,T,,,0.0,N,0.0,K*2D"
12,597,0.536448,2.36328125,"$GPGGA,194348.000,3531.51152,N,11947.11587,W,2,10,0.9,168.9,M,-29.8,M,1,138*63"
12,597,0.536448,2.36328125,"$GPGSA,A,3,08,17,13,27,19,28,25,26,11,29,,,1.6,0.9,1.3*3D"
12,597,0.536448,2.36328125,"$GPVTG,273.1,T,,,0.4,N,0.8,K*26"
23,1194,1.072896,3.40625,"$GPGGA,194349.000,3531.51152,N,11947.11621,W,2,10,0.9,168.9,M,-29.8,M,2,138*6E"
23,1194,1.072896,3.40625,"$GPGSA,A,3,08,13,17,27,19,28,25,29,26,11,,,1.6,0.9,1.3*3D"
23,1194,1.072896,3.40625,"$GPVTG,270.6,T,,,1.0,N,1.9,K*27"
33,1737,1.560576,4.39453125,"$GPGGA,194350.000,3531.51152,N,11947.11654,W,2,10,0.9,168.9,M,-29.8,M,3,138*65"
33,1737,1.560576,4.39453125,"$GPGSA,A,3,27,08,19,11,25,28,29,26,17,13,,,1.6,0.9,1.3*3D"
33,1737,1.560576,4.39453125,"$GPVTG,268.0,T,,,1.0,N,1.8,K*29"
42,2225,1.999488,5.4375,"$GPGGA,194351.000,3531.51152,N,11947.11682,W,2,10,0.9,169.0,M,-29.8,M,4,138*60"
42,2225,1.999488,5.4375,"$GPGSA,A,3,08,13,27,17,26,11,29,28,25,19,,,1.6,0.9,1.3*3D"
42,2225,1.999488,5.4375,"$GPVTG,270.2,T,,,0.8,N,1.6,K*25"
51,2714,2.4384,6.37109375,"$GPGGA,194352.000,3531.51155,N,11947.11715,W,2,10,0.9,169.0,M,-29.8,M,1,138*6E"
51,2714,2.4384,6.37109375,"$GPGSA,A,3,19,17,08,27,28,13,25,11,26,29,,,1.6,0.9,1.3*3D"
51,2714,2.4384,6.37109375,"$GPVTG,274.4,T,,,1.0,N,1.8,K*20"
60,3202,2.8773123048,7.36328125,"$GPGGA,194353.000,3531.51152,N,11947.11744,W,2,10,0.9,169.0,M,-29.8,M,1,138*6C"
60,3202,2.8773123048,7.36328125,"$GPGSA,A,3,27,08,28,19,25,11,17,29,13,26,,,1.6,0.9,1.3*3D"
60,3202,2.8773123048,7.36328125,"$GPVTG,261.0,T,,,0.9,N,1.6,K*26"
70,3745,3.364992,8.3515625,"$GPGGA,194354.000,3531.51154,N,11947.11771,W,2,10,0.9,169.0,M,-29.8,M,1,138*6B"
70,3745,3.364992,8.3515625,"$GPGSA,A,3,25,28,11,27,08,29,26,19,13,17,,,1.6,0.9,1.3*3D"
70,3745,3.364992,8.3515625,"$GPVTG,274.9,T,,,0.8,N,1.5,K*29"
80,4287,3.852672,9.33984375,"$GPGGA,194355.000,3531.51154,N,11947.11805,W,2,10,0.9,169.0,M,-29.8,M,2,138*65"
80,4287,3.852672,9.33984375,"$GPGSA,A,3,08,13,27,28,25,26,17,29,11,19,,,1.6,0.9,1.3*3D"
80,4287,3.852672,9.33984375,"$GPVTG,270.0,T,,,1.0,N,1.9,K*21"
90,4830,4.340352,10.4375,"$GPGGA,194356.000,3531.51153,N,11947.11838,W,2,10,0.9,169.1,M,-29.8,M,3,138*6F"
90,4830,4.340352,10.4375,"$GPGSA,A,3,08,28,19,11,27,17,13,25,29,26,,,1.6,0.9,1.3*3D"
90,4830,4.340352,10.4375,"$GPVTG,267.4,T,,,1.0,N,1.8,K*22"
95,5101,4.584192,11.31640625,"$GPGGA,194357.000,3531.51155,N,11947.11866,W,2,10,0.9,169.1,M,-29.8,M,4,138*64"
95,5101,4.584192,11.31640625,"$GPGSA,A,3,08,13,27,26,29,25,11,28,17,19,,,1.6,0.9,1.3*3D"
95,5101,4.584192,11.31640625,"$GPVTG,272.3,T,,,0.8,N,1.6,K*26"
99,5318,4.779264,12.4140625,"$GPGGA,194358.000,3531.51153,N,11947.11885,W,2,10,0.9,169.1,M,-29.8,M,1,138*65"
99,5318,4.779264,12.4140625,"$GPGSA,A,3,17,08,19,27,28,13,25,11,26,29,,,1.6,0.9,1.3*3D"
99,5318,4.779264,12.4140625,"$GPVTG,261.7,T,,,0.6,N,1.1,K*29"
101,5427,4.8768,14.66796875,"$GPGGA,194400.000,3531.51151,N,11947.11905,W,2,10,0.9,169.1,M,-29.8,M,1,138*64"
101,5427,4.8768,14.66796875,"$GPGSA,A,3,13,08,25,17,27,28,26,19,11,29,,,1.6,0.9,1.3*3D"
101,5427,4.8768,14.66796875,"$GPVTG,0.0,T,,,0.0,N,0.0,K*2D"
108,5806,5.2181763048,15.4375,"$GPGGA,194401.000,3531.51151,N,11947.11905,W,2,10,0.9,169.1,M,-29.8,M,2,138*66"
108,5806,5.2181763048,15.4375,"$GPGSA,A,3,08,13,17,27,28,19,25,29,26,11,,,1.6,0.9,1.3*3D"
108,5806,5.2181763048,15.4375,"$GPVTG,0.0,T,,,0.0,N,0.0,K*2D"
114,6132,5.510784,16.42578125,"$GPGGA,194402.000,3531.51149,N,11947.11927,W,2,10,0.9,169.1,M,-29.8,M,3,138*6D"
114,6132,5.510784,16.42578125,"$GPGSA,A,3,08,13,27,17,28,25,19,26,29,11,,,1.6,0.9,1.3*3D"
114,6132,5.510784,16.42578125,"$GPVTG,263.7,T,,,0.6,N,1.2,K*28"
