;GPS@@@
;Ver=1.1.0
;DIP=2009-00152-00
;Date=2007-Sep-26 15:49:30.863
;Offset_m=
;Latency_s=
;-----------------------------------------------------------------------------------------------------------------------------------------------------------
;Created from source file 'LINEY8.gps'
traces,odo_tick,pos(m),time_elapsed(s),GPS
1,0,0,0,"$GPGGA,195113.000,3531.51472,N,11947.11622,W,2,10,0.9,169.0,M,-29.8,M,2,138*6E"
1,0,0,0,"$GPGSA,A,3,19,17,11,08,27,25,29,28,26,13,,,1.7,0.9,1.4*3B"
1,0,0,0,"$GPVTG,0.0,T,,,0.0,N,0.0,K*2D"
2,55,0.048768,1.09765625,"$GPGGA,195114.000,3531.51472,N,11947.11622,W,2,10,0.9,169.0,M,-29.8,M,3,138*68"
2,55,0.048768,1.09765625,"$GPGSA,A,3,28,19,26,17,08,29,25,27,11,13,,,1.7,0.9,1.4*3B"
2,55,0.048768,1.09765625,"$GPVTG,0.0,T,,,0.0,N,0.0,K*2D"
6,272,0.24384,1.59375,"$GPGGA,195115.000,3531.51472,N,11947.11622,W,2,10,0.9,169.0,M,-29.8,M,4,138*6E"
6,272,0.24384,1.59375,"$GPGSA,A,3,17,28,25,29,19,11,08,27,26,13,,,1.7,0.9,1.4*3B"
6,272,0.24384,1.59375,"$GPVTG,0.0,T,,,0.0,N,0.0,K*2D"
14,706,0.633984,2.58203125,"$GPGGA,195116.000,3531.51472,N,11947.11641,W,2,10,0.9,169.0,M,-29.8,M,1,138*6D"
14,706,0.633984,2.58203125,"$GPGSA,A,3,08,17,27,19,28,25,26,11,29,13,,,1.7,0.9,1.4*3B"
14,706,0.633984,2.58203125,"$GPVTG,270.1,T,,,0.6,N,1.1,K*2F"
24,1249,1.121664,3.625,"$GPGGA,195117.000,3531.51472,N,11947.11675,W,2,10,0.9,169.0,M,-29.8,M,1,138*6B"
24,1249,1.121664,3.625,"$GPGSA,A,3,08,17,27,28,19,25,26,29,11,13,,,1.7,0.9,1.4*3B"
24,1249,1.121664,3.625,"$GPVTG,268.1,T,,,1.0,N,1.9,K*29"
35,1845,1.658112,4.61328125,"$GPGGA,195118.000,3531.51471,N,11947.11704,W,2,10,0.9,169.0,M,-29.8,M,1,138*60"
35,1845,1.658112,4.61328125,"$GPGSA,A,3,08,27,26,25,17,11,28,29,19,13,,,1.7,0.9,1.4*3B"
35,1845,1.658112,4.61328125,"$GPVTG,270.4,T,,,0.9,N,1.7,K*23"
45,2388,2.145792,5.6015625,"$GPGGA,195119.000,3531.51472,N,11947.11737,W,2,10,0.9,169.1,M,-29.8,M,2,138*60"
45,2388,2.145792,5.6015625,"$GPGSA,A,3,08,17,27,19,28,25,26,29,11,13,,,1.7,0.9,1.4*3B"
45,2388,2.145792,5.6015625,"$GPVTG,271.1,T,,,1.0,N,1.9,K*21"
56,2985,2.68224,6.58984375,"$GPGGA,195120.000,3531.51474,N,11947.11768,W,2,10,0.9,169.1,M,-29.8,M,3,138*67"
56,2985,2.68224,6.58984375,"$GPGSA,A,3,11,29,25,26,27,08,28,19,17,13,,,1.7,0.9,1.4*3B"
56,2985,2.68224,6.58984375,"$GPVTG,276.3,T,,,1.0,N,1.8,K*25"
67,3582,3.218688,7.58203125,"$GPGGA,195121.000,3531.51472,N,11947.11802,W,2,10,0.9,169.2,M,-29.8,M,4,138*67"
67,3582,3.218688,7.58203125,"$GPGSA,A,3,29,26,27,25,28,11,08,19,17,13,,,1.7,0.9,1.4*3B"
67,3582,3.218688,7.58203125,"$GPVTG,266.6,T,,,1.1,N,2.0,K*2B"
78,4179,3.755136,8.625,"$GPGGA,195122.000,3531.51476,N,11947.11835,W,2,10,0.9,169.2,M,-29.8,M,1,138*61"
78,4179,3.755136,8.625,"$GPGSA,A,3,27,28,08,25,11,29,26,19,17,13,,,1.7,0.9,1.4*3B"
78,4179,3.755136,8.625,"$GPVTG,278.7,T,,,1.0,N,1.9,K*2E"
88,4721,4.242816,9.66796875,"$GPGGA,195123.000,3531.51474,N,11947.11869,W,2,10,0.9,169.2,M,-29.8,M,1,138*6B"
88,4721,4.242816,9.66796875,"$GPGSA,A,3,28,08,11,27,25,29,26,19,17,13,,,1.7,0.9,1.4*3B"
88,4721,4.242816,9.66796875,"$GPVTG,269.1,T,,,1.0,N,1.9,K*28"
96,5155,4.63296,10.6015625,"$GPGGA,195124.000,3531.51477,N,11947.11902,W,2,10,0.9,169.3,M,-29.8,M,1,138*62"
96,5155,4.63296,10.6015625,"$GPGSA,A,3,27,11,08,29,25,28,26,19,17,13,,,1.7,0.9,1.4*3B"
96,5155,4.63296,10.6015625,"$GPVTG,276.2,T,,,1.0,N,1.8,K*24"
102,5481,4.925568,12.3046875,"$GPGGA,195125.000,3531.51474,N,11947.11926,W,2,10,0.9,169.3,M,-29.8,M,2,138*65"
102,5481,4.925568,12.3046875,"$GPGSA,A,3,08,19,17,27,28,25,11,29,26,13,,,1.7,0.9,1.4*3B"
102,5481,4.925568,12.3046875,"$GPVTG,264.4,T,,,0.7,N,1.4,K*2B"
103,5535,4.974336,13.07421875,"$GPGGA,195126.000,3531.51471,N,11947.11950,W,2,10,0.9,169.3,M,-29.8,M,3,138*63"
103,5535,4.974336,13.07421875,"$GPGSA,A,3,08,27,28,17,25,26,29,19,11,13,,,1.7,0.9,1.4*3B"
103,5535,4.974336,13.07421875,"$GPVTG,0.0,T,,,0.0,N,0.0,K*2D"
107,5752,5.1694083048,13.62109375,"$GPGGA,195127.000,3531.51471,N,11947.11950,W,2,10,0.9,169.3,M,-29.8,M,4,138*65"
107,5752,5.1694083048,13.62109375,"$GPGSA,A,3,19,08,27,28,17,25,11,29,26,13,,,1.7,0.9,1.4*3B"
107,5752,5.1694083048,13.62109375,"$GPVTG,0.0,T,,,0.0,N,0.0,K*2D"
116,6241,5.60832,14.6640625,"$GPGGA,195128.000,3531.51468,N,11947.11973,W,2,10,0.9,169.3,M,-29.8,M,1,138*66"
116,6241,5.60832,14.6640625,"$GPGSA,A,3,08,27,17,28,25,19,26,29,11,13,,,1.7,0.9,1.4*3B"
116,6241,5.60832,14.6640625,"$GPVTG,261.5,T,,,0.7,N,1.3,K*28"
