;GPS@@@
;Ver=1.1.0
;DIP=2009-00152-00
;Date=2007-Sep-26 15:50:52.539
;Offset_m=
;Latency_s=
;-----------------------------------------------------------------------------------------------------------------------------------------------------------
;Created from source file 'LINEX0.gps'
traces,odo_tick,pos(m),time_elapsed(s),GPS
1,0,0,0,"$GPGGA,195235.000,3531.51154,N,11947.11566,W,2,10,0.9,168.0,M,-29.8,M,1,138*69"
1,0,0,0,"$GPGSA,A,3,17,29,11,27,26,28,08,19,25,13,,,1.7,0.9,1.4*3B"
1,0,0,0,"$GPVTG,0.0,T,,,0.0,N,0.0,K*2D"
2,55,0.048768,0.93359375,"$GPGGA,195236.000,3531.51154,N,11947.11567,W,2,10,0.9,168.0,M,-29.8,M,1,138*6B"
2,55,0.048768,0.93359375,"$GPGSA,A,3,11,28,08,29,25,27,19,17,26,13,,,1.7,0.9,1.4*3B"
2,55,0.048768,0.93359375,"$GPVTG,0.0,T,,,0.0,N,0.0,K*2D"
10,489,0.438912,1.8671875,"$GPGGA,195237.000,3531.51154,N,11947.11568,W,2,10,0.9,168.0,M,-29.8,M,2,138*66"
10,489,0.438912,1.8671875,"$GPGSA,A,3,28,27,08,11,25,29,26,19,17,13,,,1.7,0.9,1.4*3B"
10,489,0.438912,1.8671875,"$GPVTG,0.0,T,,,0.0,N,0.0,K*2D"
22,1140,1.024128,2.91015625,"$GPGGA,195238.000,3531.51178,N,11947.11571,W,2,10,0.9,168.0,M,-29.8,M,3,138*6E"
22,1140,1.024128,2.91015625,"$GPGSA,A,3,28,08,27,11,25,29,19,26,17,13,,,1.7,0.9,1.4*3B"
22,1140,1.024128,2.91015625,"$GPVTG,353.7,T,,,0.9,N,1.6,K*21"
28,1466,1.316736,3.953125,"$GPGGA,195239.000,3531.51210,N,11947.11573,W,2,10,0.9,167.9,M,-29.8,M,4,138*61"
28,1466,1.316736,3.953125,"$GPGSA,A,3,27,08,28,11,25,29,26,19,17,13,,,1.7,0.9,1.4*3B"
28,1466,1.316736,3.953125,"$GPVTG,358.5,T,,,1.1,N,2.1,K*25"
35,1845,1.658112,4.99609375,"$GPGGA,195240.000,3531.51227,N,11947.11582,W,2,10,0.9,167.9,M,-29.8,M,1,138*60"
35,1845,1.658112,4.99609375,"$GPGSA,A,3,28,27,08,11,25,29,26,19,17,13,,,1.7,0.9,1.4*3B"
35,1845,1.658112,4.99609375,"$GPVTG,348.9,T,,,0.5,N,1.0,K*2F"
44,2334,2.097024,5.875,"$GPGGA,195241.000,3531.51246,N,11947.11585,W,2,10,0.9,167.9,M,-29.8,M,1,138*61"
44,2334,2.097024,5.875,"$GPGSA,A,3,08,28,27,25,17,19,26,11,29,13,,,1.7,0.9,1.4*3B"
44,2334,2.097024,5.875,"$GPVTG,3.4,T,,,0.6,N,1.1,K*2C"
54,2876,2.584704,6.91796875,"$GPGGA,195242.000,3531.51269,N,11947.11592,W,2,10,0.9,167.9,M,-29.8,M,1,138*69"
54,2876,2.584704,6.91796875,"$GPGSA,A,3,19,08,28,27,17,11,25,29,26,13,,,1.7,0.9,1.4*3B"
54,2876,2.584704,6.91796875,"$GPVTG,350.4,T,,,0.7,N,1.4,K*2D"
61,3256,2.92608,7.96484375,"$GPGGA,195243.000,3531.51301,N,11947.11592,W,2,10,0.9,167.9,M,-29.8,M,2,138*64"
61,3256,2.92608,7.96484375,"$GPGSA,A,3,25,11,29,26,27,28,08,19,17,13,,,1.7,0.9,1.4*3B"
61,3256,2.92608,7.96484375,"$GPVTG,4.7,T,,,1.1,N,2.0,K*2C"
72,3853,3.4625283048,8.953125,"$GPGGA,195244.000,3531.51322,N,11947.11592,W,2,10,0.9,168.0,M,-29.8,M,3,138*65"
72,3853,3.4625283048,8.953125,"$GPGSA,A,3,28,27,08,11,25,29,26,19,17,13,,,1.7,0.9,1.4*3B"
72,3853,3.4625283048,8.953125,"$GPVTG,5.2,T,,,0.7,N,1.3,K*2F"
80,4287,3.852672,9.99609375,"$GPGGA,195245.000,3531.51353,N,11947.11589,W,2,10,0.9,167.9,M,-29.8,M,4,138*69"
80,4287,3.852672,9.99609375,"$GPGSA,A,3,27,11,08,28,25,29,26,19,17,13,,,1.7,0.9,1.4*3B"
80,4287,3.852672,9.99609375,"$GPVTG,9.0,T,,,1.1,N,2.0,K*26"
89,4775,4.291584,10.984375,"$GPGGA,195246.000,3531.51372,N,11947.11592,W,2,10,0.9,168.0,M,-29.8,M,1,138*60"
89,4775,4.291584,10.984375,"$GPGSA,A,3,11,27,25,29,08,28,26,19,17,13,,,1.7,0.9,1.4*3B"
89,4775,4.291584,10.984375,"$GPVTG,358.3,T,,,0.6,N,1.2,K*25"
96,5155,4.63296,11.86328125,"$GPGGA,195247.000,3531.51399,N,11947.11594,W,2,10,0.9,168.0,M,-29.8,M,1,138*62"
96,5155,4.63296,11.86328125,"$GPGSA,A,3,28,27,08,11,25,29,26,19,17,13,,,1.7,0.9,1.4*3B"
96,5155,4.63296,11.86328125,"$GPVTG,359.5,T,,,0.9,N,1.6,K*29"
100,5372,4.828032,13.89453125,"$GPGGA,195249.000,3531.51441,N,11947.11595,W,2,10,0.9,168.0,M,-29.8,M,2,138*6C"
100,5372,4.828032,13.89453125,"$GPGSA,A,3,28,27,08,11,25,29,26,19,17,13,,,1.7,0.9,1.4*3B"
100,5372,4.828032,13.89453125,"$GPVTG,0.0,T,,,0.0,N,0.0,K*2D"
109,5861,5.2669443048,14.9375,"$GPGGA,195250.000,3531.51441,N,11947.11594,W,2,10,0.9,168.0,M,-29.8,M,3,138*64"
109,5861,5.2669443048,14.9375,"$GPGSA,A,3,28,27,08,25,11,29,26,19,17,13,,,1.7,0.9,1.4*3B"
109,5861,5.2669443048,14.9375,"$GPVTG,0.0,T,,,0.0,N,0.0,K*2D"
