;GPS@@@
;Ver=1.1.0
;DIP=2009-00152-00
;Date=2007-Sep-26 15:43:03.914
;Offset_m=
;Latency_s=
;-----------------------------------------------------------------------------------------------------------------------------------------------------------
;Created from source file 'LINEY1.gps'
traces,odo_tick,pos(m),time_elapsed(s),GPS
1,0,0,0,"$GPGGA,194446.000,3531.51200,N,11947.11579,W,2,10,0.9,169.0,M,-29.8,M,1,138*67"
1,0,0,0,"$GPGSA,A,3,17,29,19,26,11,25,28,13,08,27,,,1.6,0.9,1.3*3D"
1,0,0,0,"$GPVTG,0.0,T,,,0.0,N,0.0,K*2D"
2,55,0.048768,1.20703125,"$GPGGA,194447.000,3531.51200,N,11947.11579,W,2,10,0.9,169.0,M,-29.8,M,1,138*66"
2,55,0.048768,1.20703125,"$GPGSA,A,3,08,17,25,29,19,26,27,28,13,11,,,1.6,0.9,1.3*3D"
2,55,0.048768,1.20703125,"$GPVTG,0.0,T,,,0.0,N,0.0,K*2D"
5,218,0.195072,1.59375,"$GPGGA,194448.000,3531.51200,N,11947.11579,W,2,10,0.9,169.0,M,-29.8,M,1,138*69"
5,218,0.195072,1.59375,"$GPGSA,A,3,29,13,28,17,08,19,27,11,25,26,,,1.6,0.9,1.3*3D"
5,218,0.195072,1.59375,"$GPVTG,0.0,T,,,0.0,N,0.0,K*2D"
14,706,0.633984,2.58203125,"$GPGGA,194449.000,3531.51200,N,11947.11597,W,2,10,0.9,169.0,M,-29.8,M,2,138*6B"
14,706,0.633984,2.58203125,"$GPGSA,A,3,08,13,17,27,19,28,25,26,29,11,,,1.6,0.9,1.3*3D"
14,706,0.633984,2.58203125,"$GPVTG,270.7,T,,,0.5,N,1.0,K*2B"
24,1249,1.121664,3.5703125,"$GPGGA,194450.000,3531.51201,N,11947.11626,W,2,10,0.9,169.0,M,-29.8,M,3,138*6A"
24,1249,1.121664,3.5703125,"$GPGSA,A,3,08,13,17,27,19,28,25,11,26,29,,,1.6,0.9,1.3*3D"
24,1249,1.121664,3.5703125,"$GPVTG,270.9,T,,,0.9,N,1.6,K*2F"
36,1900,1.70688,4.55859375,"$GPGGA,194451.000,3531.51201,N,11947.11661,W,2,10,0.9,169.0,M,-29.8,M,4,138*6F"
36,1900,1.70688,4.55859375,"$GPGSA,A,3,08,13,27,25,26,28,29,17,11,19,,,1.6,0.9,1.3*3D"
36,1900,1.70688,4.55859375,"$GPVTG,267.7,T,,,1.0,N,1.9,K*20"
46,2442,2.19456,5.546875,"$GPGGA,194452.000,3531.51203,N,11947.11698,W,2,10,0.9,169.0,M,-29.8,M,1,138*6D"
46,2442,2.19456,5.546875,"$GPGSA,A,3,08,19,28,27,25,17,13,11,29,26,,,1.6,0.9,1.3*3D"
46,2442,2.19456,5.546875,"$GPVTG,272.6,T,,,1.1,N,2.0,K*2E"
58,3093,2.779776,6.53515625,"$GPGGA,194453.000,3531.51206,N,11947.11733,W,2,10,0.9,169.0,M,-29.8,M,1,138*69"
58,3093,2.779776,6.53515625,"$GPGSA,A,3,11,08,29,13,25,28,26,27,17,19,,,1.6,0.9,1.3*3D"
58,3093,2.779776,6.53515625,"$GPVTG,275.3,T,,,1.0,N,1.9,K*27"
72,3853,3.4625283048,7.578125,"$GPGGA,194454.000,3531.51207,N,11947.11771,W,2,10,0.9,169.0,M,-29.8,M,1,138*69"
72,3853,3.4625283048,7.578125,"$GPGSA,A,3,08,26,27,13,25,28,29,11,17,19,,,1.6,0.9,1.3*3D"
72,3853,3.4625283048,7.578125,"$GPVTG,271.5,T,,,1.1,N,2.1,K*2F"
84,4504,4.047744,8.56640625,"$GPGGA,194455.000,3531.51207,N,11947.11815,W,2,10,0.9,169.0,M,-29.8,M,2,138*66"
84,4504,4.047744,8.56640625,"$GPGSA,A,3,08,13,27,26,29,28,25,17,19,11,,,1.6,0.9,1.3*3D"
84,4504,4.047744,8.56640625,"$GPVTG,268.6,T,,,1.3,N,2.4,K*23"
94,5047,4.535424,9.5,"$GPGGA,194456.000,3531.51208,N,11947.11855,W,2,10,0.9,169.0,M,-29.8,M,3,138*6F"
94,5047,4.535424,9.5,"$GPGSA,A,3,08,26,29,27,28,13,11,25,19,17,,,1.6,0.9,1.3*3D"
94,5047,4.535424,9.5,"$GPVTG,271.8,T,,,1.2,N,2.2,K*22"
100,5372,4.828032,11.91796875,"$GPGGA,194458.000,3531.51209,N,11947.11922,W,2,10,0.9,169.0,M,-29.8,M,1,138*63"
100,5372,4.828032,11.91796875,"$GPGSA,A,3,08,13,17,27,19,28,25,11,29,26,,,1.6,0.9,1.3*3D"
100,5372,4.828032,11.91796875,"$GPVTG,0.0,T,,,0.0,N,0.0,K*2D"
104,5589,5.023104,12.5234375,"$GPGGA,194459.000,3531.51209,N,11947.11922,W,2,10,0.9,169.0,M,-29.8,M,1,138*62"
104,5589,5.023104,12.5234375,"$GPGSA,A,3,13,08,19,17,27,28,26,25,11,29,,,1.6,0.9,1.3*3D"
104,5589,5.023104,12.5234375,"$GPVTG,0.0,T,,,0.0,N,0.0,K*2D"
113,6078,5.462016,13.51171875,"$GPGGA,194500.000,3531.51209,N,11947.11939,W,2,10,0.9,169.0,M,-29.8,M,1,138*65"
113,6078,5.462016,13.51171875,"$GPGSA,A,3,08,13,17,27,19,28,25,26,11,29,,,1.6,0.9,1.3*3D"
113,6078,5.462016,13.51171875,"$GPVTG,271.0,T,,,0.5,N,0.9,K*25"
117,6295,5.6570876952,15.48828125,"$GPGGA,194501.000,3531.51211,N,11947.11960,W,2,10,0.9,169.0,M,-29.8,M,2,138*62"
117,6295,5.6570876952,15.48828125,"$GPGSA,A,3,17,19,08,27,28,13,25,11,29,26,,,1.6,0.9,1.3*3D"
117,6295,5.6570876952,15.48828125,"$GPVTG,274.8,T,,,0.6,N,1.1,K*22"
118,6349,5.7058556952,15.76171875,"$GPGGA,194502.000,3531.51213,N,11947.11980,W,2,10,0.9,169.0,M,-29.8,M,3,138*6C"
118,6349,5.7058556952,15.76171875,"$GPGSA,A,3,08,17,27,13,19,28,25,11,26,29,,,1.6,0.9,1.3*3D"
118,6349,5.7058556952,15.76171875,"$GPVTG,0.0,T,,,0.0,N,0.0,K*2D"
120,6458,5.8033923048,17.7421875,"$GPGGA,194504.000,3531.51213,N,11947.11979,W,2,10,0.9,169.0,M,-29.8,M,1,138*6E"
120,6458,5.8033923048,17.7421875,"$GPGSA,A,3,08,13,17,27,19,28,25,11,29,26,,,1.6,0.9,1.3*3D"
120,6458,5.8033923048,17.7421875,"$GPVTG,0.0,T,,,0.0,N,0.0,K*2D"
