;GPS@@@
;Ver=1.1.0
;DIP=2009-00152-00
;Date=2007-Sep-26 15:47:02.73
;Offset_m=
;Latency_s=
;------------------------------------------------------------------------------------------------------------------------------------------------------------
;Created from source file 'LINEY5.gps'
traces,odo_tick,pos(m),time_elapsed(s),GPS
1,0,0,0,"$GPGGA,194845.000,3531.51404,N,11947.11637,W,2,10,0.9,168.9,M,-29.8,M,4,138*6E"
1,0,0,0,"$GPGSA,A,3,29,19,25,17,28,26,27,11,08,13,,,1.7,0.9,1.4*3B"
1,0,0,0,"$GPVTG,0.0,T,,,0.0,N,0.0,K*2D"
2,55,0.048768,1.53515625,"$GPGGA,194846.000,3531.51404,N,11947.11637,W,2,10,0.9,168.9,M,-29.8,M,1,138*68"
2,55,0.048768,1.53515625,"$GPGSA,A,3,29,17,19,11,27,26,25,28,08,13,,,1.7,0.9,1.4*3B"
2,55,0.048768,1.53515625,"$GPVTG,0.0,T,,,0.0,N,0.0,K*2D"
3,109,0.097536,1.7578125,"$GPGGA,194847.000,3531.51404,N,11947.11637,W,2,10,0.9,168.9,M,-29.8,M,1,138*69"
3,109,0.097536,1.7578125,"$GPGSA,A,3,17,28,26,19,27,08,29,11,25,13,,,1.7,0.9,1.4*3B"
3,109,0.097536,1.7578125,"$GPVTG,0.0,T,,,0.0,N,0.0,K*2D"
13,652,0.585216,2.74609375,"$GPGGA,194848.000,3531.51404,N,11947.11638,W,2,10,0.9,168.9,M,-29.8,M,1,138*69"
13,652,0.585216,2.74609375,"$GPGSA,A,3,08,17,27,28,19,25,26,29,11,13,,,1.7,0.9,1.4*3B"
13,652,0.585216,2.74609375,"$GPVTG,0.0,T,,,0.0,N,0.0,K*2D"
24,1249,1.121664,3.734375,"$GPGGA,194849.000,3531.51401,N,11947.11672,W,2,10,0.9,168.9,M,-29.8,M,2,138*60"
24,1249,1.121664,3.734375,"$GPGSA,A,3,08,17,27,28,19,25,26,29,11,13,,,1.7,0.9,1.4*3B"
24,1249,1.121664,3.734375,"$GPVTG,265.5,T,,,1.0,N,1.9,K*20"
37,1954,1.755648,4.77734375,"$GPGGA,194850.000,3531.51403,N,11947.11707,W,2,10,0.9,168.9,M,-29.8,M,3,138*68"
37,1954,1.755648,4.77734375,"$GPGSA,A,3,28,27,08,25,11,29,19,26,17,13,,,1.7,0.9,1.4*3B"
37,1954,1.755648,4.77734375,"$GPVTG,274.1,T,,,1.0,N,1.9,K*24"
47,2497,2.243328,5.765625,"$GPGGA,194851.000,3531.51405,N,11947.11743,W,2,10,0.9,168.9,M,-29.8,M,4,138*68"
47,2497,2.243328,5.765625,"$GPGSA,A,3,27,19,08,28,25,17,29,11,26,13,,,1.7,0.9,1.4*3B"
47,2497,2.243328,5.765625,"$GPVTG,277.5,T,,,1.1,N,2.0,K*28"
58,3093,2.779776,6.75390625,"$GPGGA,194852.000,3531.51398,N,11947.11776,W,2,10,0.9,168.9,M,-29.8,M,1,138*6B"
58,3093,2.779776,6.75390625,"$GPGSA,A,3,28,08,27,19,25,11,29,26,17,13,,,1.7,0.9,1.4*3B"
58,3093,2.779776,6.75390625,"$GPVTG,257.5,T,,,1.0,N,1.9,K*21"
70,3745,3.364992,7.7421875,"$GPGGA,194853.000,3531.51399,N,11947.11812,W,2,10,0.9,168.9,M,-29.8,M,1,138*66"
70,3745,3.364992,7.7421875,"$GPGSA,A,3,28,08,27,19,25,11,29,26,17,13,,,1.7,0.9,1.4*3B"
70,3745,3.364992,7.7421875,"$GPVTG,274.5,T,,,1.1,N,2.1,K*2A"
80,4287,3.852672,8.73046875,"$GPGGA,194854.000,3531.51398,N,11947.11853,W,2,10,0.9,168.9,M,-29.8,M,1,138*65"
80,4287,3.852672,8.73046875,"$GPGSA,A,3,08,27,25,28,26,29,11,19,17,13,,,1.7,0.9,1.4*3B"
80,4287,3.852672,8.73046875,"$GPVTG,270.6,T,,,1.2,N,2.3,K*2C"
92,4938,4.437888,9.77734375,"$GPGGA,194855.000,3531.51394,N,11947.11884,W,2,10,0.9,169.0,M,-29.8,M,2,138*69"
92,4938,4.437888,9.77734375,"$GPGSA,A,3,17,08,19,27,28,25,11,26,29,13,,,1.7,0.9,1.4*3B"
92,4938,4.437888,9.77734375,"$GPVTG,265.7,T,,,1.0,N,1.8,K*23"
99,5318,4.779264,10.7109375,"$GPGGA,194856.000,3531.51396,N,11947.11918,W,2,10,0.9,169.0,M,-29.8,M,3,138*6D"
99,5318,4.779264,10.7109375,"$GPGSA,A,3,08,28,27,19,25,11,29,17,26,13,,,1.7,0.9,1.4*3B"
99,5318,4.779264,10.7109375,"$GPVTG,276.9,T,,,1.0,N,1.9,K*2E"
102,5481,4.925568,12.46875,"$GPGGA,194857.000,3531.51395,N,11947.11937,W,2,09,1.0,169.0,M,-29.8,M,4,138*65"
102,5481,4.925568,12.46875,"$GPGSA,A,3,17,08,19,27,28,25,11,29,26,,,,1.7,1.0,1.4*31"
102,5481,4.925568,12.46875,"$GPVTG,269.7,T,,,0.6,N,1.1,K*21"
104,5589,5.023104,12.7421875,"$GPGGA,194858.000,3531.51393,N,11947.11957,W,2,10,1.0,169.0,M,-29.8,M,1,138*67"
104,5589,5.023104,12.7421875,"$GPGSA,A,3,08,17,27,28,19,25,26,29,11,13,,,1.7,1.0,1.4*33"
104,5589,5.023104,12.7421875,"$GPVTG,0.0,T,,,0.0,N,0.0,K*2D"
114,6132,5.510784,13.73046875,"$GPGGA,194859.000,3531.51393,N,11947.11972,W,2,10,1.0,169.0,M,-29.8,M,1,138*61"
114,6132,5.510784,13.73046875,"$GPGSA,A,3,08,17,27,28,19,25,26,29,11,13,,,1.7,1.0,1.4*33"
114,6132,5.510784,13.73046875,"$GPVTG,268.5,T,,,0.5,N,0.9,K*28"
122,6566,5.9009283048,14.828125,"$GPGGA,194900.000,3531.51393,N,11947.12005,W,2,10,1.0,169.0,M,-29.8,M,1,138*66"
122,6566,5.9009283048,14.828125,"$GPGSA,A,3,08,17,27,28,19,25,26,29,11,13,,,1.7,1.0,1.4*33"
122,6566,5.9009283048,14.828125,"$GPVTG,269.8,T,,,1.0,N,1.8,K*20"
