;GPS@@@
;Ver=1.1.0
;DIP=2009-00152-00
;Date=2007-Sep-26 15:53:12.434
;Offset_m=
;Latency_s=
;-----------------------------------------------------------------------------------------------------------------------------------------------------------
;Created from source file 'LINEX3.gps'
traces,odo_tick,pos(m),time_elapsed(s),GPS
1,0,0,0,"$GPGGA,195455.000,3531.51185,N,11947.11705,W,2,10,0.9,168.4,M,-29.8,M,2,138*65"
1,0,0,0,"$GPGSA,A,3,08,25,17,11,27,29,19,28,26,13,,,1.7,0.9,1.4*3B"
1,0,0,0,"$GPVTG,0.0,T,,,0.0,N,0.0,K*2D"
2,55,0.048768,0.98828125,"$GPGGA,195456.000,3531.51185,N,11947.11705,W,2,10,0.9,168.4,M,-29.8,M,3,138*67"
2,55,0.048768,0.98828125,"$GPGSA,A,3,27,26,08,25,11,17,28,19,29,13,,,1.7,0.9,1.4*3B"
2,55,0.048768,0.98828125,"$GPVTG,0.0,T,,,0.0,N,0.0,K*2D"
7,326,0.292608,2.0859375,"$GPGGA,195457.000,3531.51185,N,11947.11705,W,2,10,0.9,168.4,M,-29.8,M,4,138*61"
7,326,0.292608,2.0859375,"$GPGSA,A,3,27,28,08,11,25,29,26,19,17,13,,,1.7,0.9,1.4*3B"
7,326,0.292608,2.0859375,"$GPVTG,0.0,T,,,0.0,N,0.0,K*2D"
15,760,0.682752,3.07421875,"$GPGGA,195458.000,3531.51199,N,11947.11707,W,2,10,0.9,168.4,M,-29.8,M,1,138*64"
15,760,0.682752,3.07421875,"$GPGSA,A,3,28,08,27,11,25,29,19,26,17,13,,,1.7,0.9,1.4*3B"
15,760,0.682752,3.07421875,"$GPVTG,352.8,T,,,0.5,N,0.9,K*2D"
23,1194,1.072896,4.0625,"$GPGGA,195459.000,3531.51219,N,11947.11707,W,2,10,0.9,168.4,M,-29.8,M,1,138*6E"
23,1194,1.072896,4.0625,"$GPGSA,A,3,27,11,29,25,28,08,26,19,17,13,,,1.7,0.9,1.4*3B"
23,1194,1.072896,4.0625,"$GPVTG,1.7,T,,,0.7,N,1.3,K*2E"
32,1683,1.511808,5.05078125,"$GPGGA,195500.000,3531.51241,N,11947.11707,W,2,10,0.9,168.4,M,-29.8,M,1,138*6E"
32,1683,1.511808,5.05078125,"$GPGSA,A,3,08,28,27,19,25,17,29,11,26,13,,,1.7,0.9,1.4*3B"
32,1683,1.511808,5.05078125,"$GPVTG,359.4,T,,,0.8,N,1.4,K*2B"
43,2279,2.048256,5.98828125,"$GPGGA,195501.000,3531.51268,N,11947.11707,W,2,10,0.9,168.4,M,-29.8,M,2,138*67"
43,2279,2.048256,5.98828125,"$GPGSA,A,3,28,08,27,25,11,29,19,26,17,13,,,1.7,0.9,1.4*3B"
43,2279,2.048256,5.98828125,"$GPVTG,359.1,T,,,1.0,N,1.8,K*2B"
55,2931,2.633472,6.9765625,"$GPGGA,195502.000,3531.51292,N,11947.11707,W,2,10,0.9,168.4,M,-29.8,M,3,138*60"
55,2931,2.633472,6.9765625,"$GPGSA,A,3,08,28,27,19,25,11,29,17,26,13,,,1.7,0.9,1.4*3B"
55,2931,2.633472,6.9765625,"$GPVTG,1.4,T,,,0.9,N,1.7,K*27"
65,3473,3.121152,8.01953125,"$GPGGA,195503.000,3531.51325,N,11947.11707,W,2,10,0.9,168.4,M,-29.8,M,4,138*6B"
65,3473,3.121152,8.01953125,"$GPGSA,A,3,28,08,27,25,11,19,29,26,17,13,,,1.7,0.9,1.4*3B"
65,3473,3.121152,8.01953125,"$GPVTG,359.0,T,,,1.2,N,2.2,K*21"
74,3962,3.560064,9.0078125,"$GPGGA,195504.000,3531.51349,N,11947.11705,W,2,10,0.9,168.4,M,-29.8,M,1,138*61"
74,3962,3.560064,9.0078125,"$GPGSA,A,3,28,08,27,19,25,11,29,26,17,13,,,1.7,0.9,1.4*3B"
74,3962,3.560064,9.0078125,"$GPVTG,4.1,T,,,0.9,N,1.6,K*26"
83,4450,3.998976,10.05078125,"$GPGGA,195505.000,3531.51375,N,11947.11706,W,2,10,0.9,168.4,M,-29.8,M,1,138*6C"
83,4450,3.998976,10.05078125,"$GPGSA,A,3,08,19,17,27,28,25,26,29,11,13,,,1.7,0.9,1.4*3B"
83,4450,3.998976,10.05078125,"$GPVTG,359.2,T,,,0.9,N,1.7,K*2F"
93,4993,4.486656,11.0390625,"$GPGGA,195506.000,3531.51399,N,11947.11709,W,2,10,0.9,168.4,M,-29.8,M,1,138*62"
93,4993,4.486656,11.0390625,"$GPGSA,A,3,08,27,26,25,29,17,28,19,11,13,,,1.7,0.9,1.4*3B"
93,4993,4.486656,11.0390625,"$GPVTG,352.4,T,,,0.9,N,1.7,K*22"
101,5427,4.8768,12.08203125,"$GPGGA,195507.000,3531.51423,N,11947.11711,W,2,10,0.9,168.4,M,-29.8,M,2,138*6F"
101,5427,4.8768,12.08203125,"$GPGSA,A,3,27,19,08,17,28,25,26,29,11,13,,,1.7,0.9,1.4*3B"
101,5427,4.8768,12.08203125,"$GPVTG,356.3,T,,,0.8,N,1.6,K*21"
102,5481,4.925568,13.34765625,"$GPGGA,195508.000,3531.51440,N,11947.11708,W,2,10,0.9,168.4,M,-29.8,M,3,138*6C"
102,5481,4.925568,13.34765625,"$GPGSA,A,3,08,28,19,27,25,17,11,29,26,13,,,1.7,0.9,1.4*3B"
102,5481,4.925568,13.34765625,"$GPVTG,6.6,T,,,0.6,N,1.2,K*28"
107,5752,5.1694083048,14.05859375,"$GPGGA,195509.000,3531.51457,N,11947.11706,W,2,10,0.9,168.4,M,-29.8,M,4,138*62"
107,5752,5.1694083048,14.05859375,"$GPGSA,A,3,28,27,08,11,25,29,26,19,17,13,,,1.7,0.9,1.4*3B"
107,5752,5.1694083048,14.05859375,"$GPVTG,0.0,T,,,0.0,N,0.0,K*2D"
115,6186,5.559552,15.10546875,"$GPGGA,195510.000,3531.51475,N,11947.11710,W,2,10,0.9,168.4,M,-29.8,M,1,138*68"
115,6186,5.559552,15.10546875,"$GPGSA,A,3,08,28,27,11,19,25,29,26,17,13,,,1.7,0.9,1.4*3B"
115,6186,5.559552,15.10546875,"$GPVTG,349.3,T,,,0.7,N,1.2,K*24"
