;GPS@@@
;Ver=1.1.0
;DIP=2009-00152-00
;Date=2007-Sep-26 15:48:47.363
;Offset_m=
;Latency_s=
;-----------------------------------------------------------------------------------------------------------------------------------------------------------
;Created from source file 'LINEY7.gps'
traces,odo_tick,pos(m),time_elapsed(s),GPS
4,163,0.146304,1.15234375,"$GPGGA,195031.000,3531.51426,N,11947.11658,W,2,10,0.9,168.9,M,-29.8,M,2,138*6B"
4,163,0.146304,1.15234375,"$GPGSA,A,3,08,25,28,27,19,17,29,26,11,13,,,1.7,0.9,1.4*3B"
4,163,0.146304,1.15234375,"$GPVTG,0.0,T,,,0.0,N,0.0,K*2D"
13,652,0.585216,2.0859375,"$GPGGA,195032.000,3531.51425,N,11947.11675,W,2,10,0.9,168.9,M,-29.8,M,3,138*65"
13,652,0.585216,2.0859375,"$GPGSA,A,3,08,17,27,28,19,25,26,11,29,13,,,1.7,0.9,1.4*3B"
13,652,0.585216,2.0859375,"$GPVTG,264.6,T,,,0.5,N,1.0,K*2F"
24,1249,1.121664,3.07421875,"$GPGGA,195033.000,3531.51421,N,11947.11708,W,2,10,0.9,168.9,M,-29.8,M,4,138*6C"
24,1249,1.121664,3.07421875,"$GPGSA,A,3,08,27,17,28,25,19,26,29,11,13,,,1.7,0.9,1.4*3B"
24,1249,1.121664,3.07421875,"$GPVTG,263.7,T,,,1.0,N,1.8,K*25"
36,1900,1.70688,4.171875,"$GPGGA,195034.000,3531.51423,N,11947.11741,W,2,10,0.9,169.0,M,-29.8,M,1,138*69"
36,1900,1.70688,4.171875,"$GPGSA,A,3,08,19,28,27,11,25,17,29,26,13,,,1.7,0.9,1.4*3B"
36,1900,1.70688,4.171875,"$GPVTG,274.0,T,,,1.1,N,2.0,K*2E"
45,2388,2.145792,5.1640625,"$GPGGA,195035.000,3531.51425,N,11947.11770,W,2,10,0.9,169.0,M,-29.8,M,1,138*6C"
45,2388,2.145792,5.1640625,"$GPGSA,A,3,08,17,19,28,27,25,11,29,26,13,,,1.7,0.9,1.4*3B"
45,2388,2.145792,5.1640625,"$GPVTG,274.2,T,,,1.0,N,1.8,K*26"
56,2985,2.68224,6.15234375,"$GPGGA,195036.000,3531.51424,N,11947.11798,W,2,10,0.9,169.0,M,-29.8,M,1,138*68"
56,2985,2.68224,6.15234375,"$GPGSA,A,3,19,27,28,29,26,08,25,11,17,13,,,1.7,0.9,1.4*3B"
56,2985,2.68224,6.15234375,"$GPVTG,269.9,T,,,0.9,N,1.7,K*26"
68,3636,3.267456,7.0859375,"$GPGGA,195037.000,3531.51425,N,11947.11832,W,2,10,0.9,169.0,M,-29.8,M,2,138*64"
68,3636,3.267456,7.0859375,"$GPGSA,A,3,08,17,27,19,25,28,29,26,11,13,,,1.7,0.9,1.4*3B"
68,3636,3.267456,7.0859375,"$GPVTG,272.1,T,,,1.1,N,2.0,K*29"
78,4179,3.755136,8.12890625,"$GPGGA,195038.000,3531.51424,N,11947.11870,W,2,10,0.9,169.0,M,-29.8,M,3,138*6D"
78,4179,3.755136,8.12890625,"$GPGSA,A,3,08,26,27,25,29,28,11,19,17,13,,,1.7,0.9,1.4*3B"
78,4179,3.755136,8.12890625,"$GPVTG,267.8,T,,,1.2,N,2.2,K*25"
88,4721,4.242816,9.0625,"$GPGGA,195039.000,3531.51424,N,11947.11898,W,2,10,0.9,169.0,M,-29.8,M,4,138*6D"
88,4721,4.242816,9.0625,"$GPGSA,A,3,08,27,17,28,25,19,26,29,11,13,,,1.7,0.9,1.4*3B"
88,4721,4.242816,9.0625,"$GPVTG,269.5,T,,,0.9,N,1.7,K*2A"
96,5155,4.63296,10.10546875,"$GPGGA,195040.000,3531.51422,N,11947.11929,W,2,10,0.9,169.1,M,-29.8,M,1,138*6A"
96,5155,4.63296,10.10546875,"$GPGSA,A,3,08,27,26,11,29,25,28,17,19,13,,,1.7,0.9,1.4*3B"
96,5155,4.63296,10.10546875,"$GPVTG,266.7,T,,,1.0,N,1.9,K*21"
100,5372,4.828032,11.09375,"$GPGGA,195041.000,3531.51424,N,11947.11951,W,2,10,0.9,169.1,M,-29.8,M,1,138*62"
100,5372,4.828032,11.09375,"$GPGSA,A,3,08,27,28,25,26,17,29,11,19,13,,,1.7,0.9,1.4*3B"
100,5372,4.828032,11.09375,"$GPVTG,273.7,T,,,0.7,N,1.3,K*29"
101,5427,4.8768,12.796875,"$GPGGA,195042.000,3531.51425,N,11947.11973,W,2,10,0.9,169.1,M,-29.8,M,1,138*60"
101,5427,4.8768,12.796875,"$GPGSA,A,3,08,17,27,19,28,25,26,29,11,13,,,1.7,0.9,1.4*3B"
101,5427,4.8768,12.796875,"$GPVTG,0.0,T,,,0.0,N,0.0,K*2D"
104,5589,5.023104,13.125,"$GPGGA,195043.000,3531.51425,N,11947.11973,W,2,10,0.9,169.1,M,-29.8,M,2,138*62"
104,5589,5.023104,13.125,"$GPGSA,A,3,17,28,08,19,26,29,25,27,11,13,,,1.7,0.9,1.4*3B"
104,5589,5.023104,13.125,"$GPVTG,0.0,T,,,0.0,N,0.0,K*2D"
115,6186,5.559552,14.05859375,"$GPGGA,195044.000,3531.51423,N,11947.11993,W,2,10,0.9,169.1,M,-29.8,M,3,138*6C"
115,6186,5.559552,14.05859375,"$GPGSA,A,3,08,17,27,28,19,25,26,29,11,13,,,1.7,0.9,1.4*3B"
115,6186,5.559552,14.05859375,"$GPVTG,264.9,T,,,0.6,N,1.1,K*22"
125,6729,6.047232,15.16015625,"$GPGGA,195045.000,3531.51425,N,11947.12027,W,2,10,0.9,169.1,M,-29.8,M,4,138*69"
125,6729,6.047232,15.16015625,"$GPGSA,A,3,08,17,19,27,28,25,29,11,26,13,,,1.7,0.9,1.4*3B"
125,6729,6.047232,15.16015625,"$GPVTG,273.3,T,,,1.0,N,1.9,K*21"
