;GPS@@@
;Ver=1.1.0
;DIP=2009-00152-00
;Date=2007-Sep-26 15:55:50.453
;Offset_m=
;Latency_s=
;-----------------------------------------------------------------------------------------------------------------------------------------------------------
;Created from source file 'LINEX6.gps'
traces,odo_tick,pos(m),time_elapsed(s),GPS
1,0,0,0,"$GPGGA,195733.000,3531.51158,N,11947.11839,W,2,10,0.9,168.5,M,-29.8,M,4,138*61"
1,0,0,0,"$GPGSA,A,3,19,27,11,17,26,28,29,08,25,13,,,1.7,0.9,1.4*3B"
1,0,0,0,"$GPVTG,0.0,T,,,0.0,N,0.0,K*2D"
2,55,0.048768,1.15234375,"$GPGGA,195734.000,3531.51158,N,11947.11839,W,2,10,0.9,168.5,M,-29.8,M,1,138*63"
2,55,0.048768,1.15234375,"$GPGSA,A,3,28,17,25,11,29,19,08,26,27,13,,,1.7,0.9,1.4*3B"
2,55,0.048768,1.15234375,"$GPVTG,0.0,T,,,0.0,N,0.0,K*2D"
9,435,0.390144,2.03125,"$GPGGA,195735.000,3531.51158,N,11947.11839,W,2,10,0.9,168.5,M,-29.8,M,1,138*62"
9,435,0.390144,2.03125,"$GPGSA,A,3,08,28,27,11,25,29,19,26,17,13,,,1.7,0.9,1.4*3B"
9,435,0.390144,2.03125,"$GPVTG,0.0,T,,,0.0,N,0.0,K*2D"
21,1086,0.97536,3.078125,"$GPGGA,195736.000,3531.51182,N,11947.11836,W,2,10,0.9,168.4,M,-29.8,M,1,138*68"
21,1086,0.97536,3.078125,"$GPGSA,A,3,28,27,08,11,25,29,26,19,17,13,,,1.7,0.9,1.4*3B"
21,1086,0.97536,3.078125,"$GPVTG,4.6,T,,,0.9,N,1.6,K*21"
31,1628,1.46304,4.01171875,"$GPGGA,195737.000,3531.51211,N,11947.11835,W,2,10,0.9,168.4,M,-29.8,M,2,138*60"
31,1628,1.46304,4.01171875,"$GPGSA,A,3,08,28,27,11,25,29,19,26,17,13,,,1.7,0.9,1.4*3B"
31,1628,1.46304,4.01171875,"$GPVTG,2.8,T,,,1.1,N,2.0,K*25"
41,2171,1.95072,5,"$GPGGA,195738.000,3531.51238,N,11947.11836,W,2,10,0.9,168.4,M,-29.8,M,3,138*66"
41,2171,1.95072,5,"$GPGSA,A,3,08,11,28,25,26,27,29,19,17,13,,,1.7,0.9,1.4*3B"
41,2171,1.95072,5,"$GPVTG,358.7,T,,,1.0,N,1.9,K*2D"
51,2714,2.4384,5.98828125,"$GPGGA,195739.000,3531.51262,N,11947.11840,W,2,10,0.9,168.4,M,-29.8,M,4,138*6E"
51,2714,2.4384,5.98828125,"$GPGSA,A,3,27,29,25,08,26,11,28,19,17,13,,,1.7,0.9,1.4*3B"
51,2714,2.4384,5.98828125,"$GPVTG,353.1,T,,,0.9,N,1.6,K*27"
58,3093,2.779776,6.9765625,"$GPGGA,195740.000,3531.51286,N,11947.11840,W,2,10,0.9,168.3,M,-29.8,M,1,138*68"
58,3093,2.779776,6.9765625,"$GPGSA,A,3,08,27,17,26,19,28,25,29,11,13,,,1.7,0.9,1.4*3B"
58,3093,2.779776,6.9765625,"$GPVTG,0.6,T,,,0.9,N,1.6,K*25"
66,3527,3.1699203048,8.01953125,"$GPGGA,195741.000,3531.51307,N,11947.11843,W,2,10,0.9,168.4,M,-29.8,M,1,138*65"
66,3527,3.1699203048,8.01953125,"$GPGSA,A,3,08,26,27,25,29,11,28,17,19,13,,,1.7,0.9,1.4*3B"
66,3527,3.1699203048,8.01953125,"$GPVTG,351.7,T,,,0.7,N,1.4,K*2F"
75,4016,3.608832,9.0078125,"$GPGGA,195742.000,3531.51326,N,11947.11845,W,2,10,0.9,168.4,M,-29.8,M,1,138*63"
75,4016,3.608832,9.0078125,"$GPGSA,A,3,27,19,17,08,28,25,26,29,11,13,,,1.7,0.9,1.4*3B"
75,4016,3.608832,9.0078125,"$GPVTG,356.6,T,,,0.7,N,1.3,K*2E"
85,4558,4.0965123048,9.99609375,"$GPGGA,195743.000,3531.51350,N,11947.11843,W,2,10,0.9,168.4,M,-29.8,M,2,138*66"
85,4558,4.0965123048,9.99609375,"$GPGSA,A,3,27,25,11,28,29,26,08,19,17,13,,,1.7,0.9,1.4*3B"
85,4558,4.0965123048,9.99609375,"$GPVTG,1.9,T,,,0.8,N,1.6,K*2A"
95,5101,4.584192,11.0390625,"$GPGGA,195744.000,3531.51378,N,11947.11843,W,2,10,0.9,168.4,M,-29.8,M,3,138*6A"
95,5101,4.584192,11.0390625,"$GPGSA,A,3,08,28,27,11,19,25,29,26,17,13,,,1.7,0.9,1.4*3B"
95,5101,4.584192,11.0390625,"$GPVTG,359.7,T,,,1.0,N,1.9,K*2C"
101,5427,4.8768,12.796875,"$GPGGA,195745.000,3531.51403,N,11947.11841,W,2,10,0.9,168.4,M,-29.8,M,4,138*65"
101,5427,4.8768,12.796875,"$GPGSA,A,3,08,27,19,28,25,11,29,17,26,13,,,1.7,0.9,1.4*3B"
101,5427,4.8768,12.796875,"$GPVTG,3.5,T,,,0.9,N,1.6,K*25"
102,5481,4.925568,13.953125,"$GPGGA,195746.000,3531.51415,N,11947.11838,W,2,10,0.9,168.4,M,-29.8,M,1,138*6A"
102,5481,4.925568,13.953125,"$GPGSA,A,3,28,08,27,11,25,29,19,26,17,13,,,1.7,0.9,1.4*3B"
102,5481,4.925568,13.953125,"$GPVTG,9.6,T,,,0.4,N,0.8,K*2E"
103,5535,4.974336,14.171875,"$GPGGA,195747.000,3531.51427,N,11947.11835,W,2,10,0.9,168.4,M,-29.8,M,1,138*67"
103,5535,4.974336,14.171875,"$GPGSA,A,3,28,27,11,08,25,29,26,19,17,13,,,1.7,0.9,1.4*3B"
103,5535,4.974336,14.171875,"$GPVTG,0.0,T,,,0.0,N,0.0,K*2D"
110,5915,5.3157123048,15.05078125,"$GPGGA,195748.000,3531.51427,N,11947.11835,W,2,10,0.9,168.4,M,-29.8,M,1,138*68"
110,5915,5.3157123048,15.05078125,"$GPGSA,A,3,28,27,08,25,29,11,26,19,17,13,,,1.7,0.9,1.4*3B"
110,5915,5.3157123048,15.05078125,"$GPVTG,0.0,T,,,0.0,N,0.0,K*2D"
116,6241,5.60832,15.984375,"$GPGGA,195749.000,3531.51448,N,11947.11836,W,2,10,0.9,168.4,M,-29.8,M,2,138*60"
116,6241,5.60832,15.984375,"$GPGSA,A,3,28,27,08,11,25,29,26,19,17,13,,,1.7,0.9,1.4*3B"
116,6241,5.60832,15.984375,"$GPVTG,358.1,T,,,0.7,N,1.4,K*20"
